{
  "version": 0.6,
  "generator": "Overpass API",
  "osm3s": {
    "timestamp_osm_base": "2015-03-08T16:18:02Z",
    "timestamp_areas_base": "2015-03-07T23:07:02Z",
    "copyright": "The data included in this document is from www.openstreetmap.org. The data is made available under ODbL."
  },
  "elements": [

{
  "type": "node",
  "id": 191838055,
  "lat": 45.4316941,
  "lon": 6.0219683,
  "tags": {
    "amenity": "pub",
    "name": "Bar de la mairie"
  }
},
{
  "type": "node",
  "id": 191861691,
  "lat": 45.4316726,
  "lon": 6.0221016,
  "tags": {
    "amenity": "restaurant",
    "name": "Restaurant Vieille mairie"
  }
},
{
  "type": "node",
  "id": 191949789,
  "lat": 45.4322035,
  "lon": 6.0194282,
  "tags": {
    "amenity": "fast_food",
    "name": "Pizza Roma",
    "takeaway": "only"
  }
},
{
  "type": "node",
  "id": 247319229,
  "lat": 45.4128119,
  "lon": 6.0138756,
  "tags": {
    "amenity": "restaurant",
    "created_by": "JOSM",
    "name": "Le Faitout"
  }
},
{
  "type": "node",
  "id": 266059677,
  "lat": 45.1828570,
  "lon": 5.7170033,
  "tags": {
    "amenity": "bar",
    "name": "L'Univers",
    "source": "v2 ; cadastre-dgi-fr source : Direction Générale des Impôts - Cadastre ; mise à jour : 2009"
  }
},
{
  "type": "node",
  "id": 269464270,
  "lat": 45.1439530,
  "lon": 5.3047936,
  "tags": {
    "amenity": "fast_food",
    "cuisine": "burger",
    "name": "McDonald's",
    "note": "malbouffe"
  }
},
{
  "type": "node",
  "id": 269633518,
  "lat": 45.1646455,
  "lon": 5.7572669,
  "tags": {
    "amenity": "restaurant",
    "name": "Crocodile"
  }
},
{
  "type": "node",
  "id": 275704547,
  "lat": 44.8186818,
  "lon": 5.9476053,
  "tags": {
    "amenity": "restaurant",
    "name": "Bar L'Obiou"
  }
},
{
  "type": "node",
  "id": 275704549,
  "lat": 44.8185244,
  "lon": 5.9473011,
  "tags": {
    "amenity": "restaurant",
    "name": "Brasserie Le Helium"
  }
},
{
  "type": "node",
  "id": 276770660,
  "lat": 45.3028177,
  "lon": 5.9072688,
  "tags": {
    "amenity": "pub",
    "name": "L'Attero"
  }
},
{
  "type": "node",
  "id": 278540207,
  "lat": 45.1502405,
  "lon": 5.7058304,
  "tags": {
    "amenity": "restaurant",
    "cuisine": "thai;japanese",
    "name": "Wok Thaï",
    "takeaway": "yes"
  }
},
{
  "type": "node",
  "id": 293850061,
  "lat": 45.1869361,
  "lon": 5.7239018,
  "tags": {
    "addr:city": "Grenoble",
    "addr:country": "FR",
    "addr:housenumber": "2",
    "addr:postcode": "38000",
    "addr:street": "Rue Lakanal",
    "amenity": "pub",
    "name": "Le Subway",
    "source": "survey"
  }
},
{
  "type": "node",
  "id": 293998294,
  "lat": 45.1865927,
  "lon": 5.7235159,
  "tags": {
    "addr:housenumber": "8",
    "addr:street": "Rue Lakanal",
    "amenity": "pub",
    "name": "Mark XIII",
    "source": "survey"
  }
},
{
  "type": "node",
  "id": 294071455,
  "lat": 45.1868829,
  "lon": 5.7324168,
  "tags": {
    "amenity": "restaurant",
    "name": "L'Unic",
    "source": "v2 ; cadastre-dgi-fr source : Direction Générale des Impôts - Cadastre ; mise à jour : 2009"
  }
},
{
  "type": "node",
  "id": 296920171,
  "lat": 45.1859633,
  "lon": 5.7227265,
  "tags": {
    "addr:housenumber": "18",
    "addr:street": "Rue Lakanal",
    "amenity": "pub",
    "name": "Douceur Café",
    "source": "survey",
    "wheelchair": "limited"
  }
},
{
  "type": "node",
  "id": 297528614,
  "lat": 45.1863424,
  "lon": 5.7235205,
  "tags": {
    "addr:street": "Rue Lakanal",
    "amenity": "cafe",
    "cuisine": "french",
    "name": "Bootsy Café",
    "source": "survey",
    "wheelchair": "no"
  }
},
{
  "type": "node",
  "id": 298873163,
  "lat": 45.1896956,
  "lon": 5.7244382,
  "tags": {
    "amenity": "fast_food",
    "name": "Quick",
    "source": "survey",
    "wheelchair": "limited"
  }
},
{
  "type": "node",
  "id": 299775474,
  "lat": 45.1871336,
  "lon": 5.7237747,
  "tags": {
    "alt_name": "Le Champollion",
    "amenity": "pub",
    "name": "O' Champollion",
    "source": "survey"
  }
},
{
  "type": "node",
  "id": 310248909,
  "lat": 45.1855142,
  "lon": 5.7219949,
  "tags": {
    "addr:city": "Grenoble",
    "addr:country": "FR",
    "addr:housenumber": "2",
    "addr:postcode": "38000",
    "addr:street": "Rue Condorcet",
    "amenity": "restaurant",
    "name": "Le Bocal",
    "source": "survey",
    "website": "http://lebocalgrenoble.blogspot.fr/"
  }
},
{
  "type": "node",
  "id": 310481896,
  "lat": 45.1874586,
  "lon": 5.7273824,
  "tags": {
    "amenity": "pub",
    "name": "Café des Beaux-Arts",
    "source": "v2 ; cadastre-dgi-fr source : Direction Générale des Impôts - Cadastre ; mise à jour : 2009"
  }
},
{
  "type": "node",
  "id": 311054678,
  "lat": 45.1865272,
  "lon": 5.7226131,
  "tags": {
    "amenity": "cafe",
    "name": "L'As de Pique",
    "source": "v2 ; cadastre-dgi-fr source : Direction Générale des Impôts - Cadastre ; mise à jour : 2009"
  }
},
{
  "type": "node",
  "id": 311054890,
  "lat": 45.1879753,
  "lon": 5.7218722,
  "tags": {
    "amenity": "fast_food",
    "cuisine": "kebab",
    "name": "Sumela",
    "old_name": "Le Saray",
    "source": "survey"
  }
},
{
  "type": "node",
  "id": 311054981,
  "lat": 45.1879582,
  "lon": 5.7219989,
  "tags": {
    "amenity": "restaurant",
    "name": "Le Molière",
    "source": "survey"
  }
},
{
  "type": "node",
  "id": 311316708,
  "lat": 45.1855392,
  "lon": 5.7217381,
  "tags": {
    "addr:city": "Grenoble",
    "addr:country": "FR",
    "addr:housenumber": "4",
    "addr:postcode": "38000",
    "addr:street": "Rue Condorcet",
    "amenity": "restaurant",
    "cuisine": "nepalese",
    "name": "Katmandou",
    "source": "survey"
  }
},
{
  "type": "node",
  "id": 311317141,
  "lat": 45.1854958,
  "lon": 5.7207841,
  "tags": {
    "amenity": "cafe",
    "name": "Brasserie Le Quai d'Orsay",
    "source": "survey"
  }
},
{
  "type": "node",
  "id": 311317156,
  "lat": 45.1854697,
  "lon": 5.7210780,
  "tags": {
    "addr:city": "Grenoble",
    "addr:country": "FR",
    "addr:housenumber": "9",
    "addr:postcode": "38000",
    "addr:street": "Rue Condorcet",
    "amenity": "restaurant",
    "name": "L'Asia",
    "source": "v2 ; cadastre-dgi-fr source : Direction Générale des Impôts - Cadastre ; mise à jour : 2009"
  }
},
{
  "type": "node",
  "id": 311317164,
  "lat": 45.1856874,
  "lon": 5.7205332,
  "tags": {
    "amenity": "restaurant",
    "cuisine": "italian",
    "name": "Restaurant Gillio",
    "old_name": "Côté Sud",
    "short_name": "RG",
    "source": "survey"
  }
},
{
  "type": "node",
  "id": 311767570,
  "lat": 45.1823165,
  "lon": 5.7319456,
  "tags": {
    "amenity": "restaurant",
    "name": "Le Marrakech",
    "source": "v2 ; cadastre-dgi-fr source : Direction Générale des Impôts - Cadastre ; mise à jour : 2009"
  }
},
{
  "type": "node",
  "id": 311838023,
  "lat": 45.1902905,
  "lon": 5.7261251,
  "tags": {
    "amenity": "fast_food",
    "cuisine": "burger",
    "drive_in": "no",
    "drive_through": "no",
    "name": "McDonald's",
    "outdoor_seating": "yes",
    "source": "v2 ; cadastre-dgi-fr source : Direction Générale des Impôts - Cadastre ; mise à jour : 2009",
    "takeaway": "yes",
    "wheelchair": "limited"
  }
},
{
  "type": "node",
  "id": 311838043,
  "lat": 45.1887303,
  "lon": 5.7237723,
  "tags": {
    "amenity": "restaurant",
    "name": "Café Hugo",
    "source": "survey"
  }
},
{
  "type": "node",
  "id": 312057456,
  "lat": 45.1905310,
  "lon": 5.7159560,
  "tags": {
    "amenity": "cafe",
    "name": "Continental Bar",
    "source": "v2 ; cadastre-dgi-fr source : Direction Générale des Impôts - Cadastre ; mise à jour : 2009"
  }
},
{
  "type": "node",
  "id": 312057457,
  "lat": 45.1899527,
  "lon": 5.7159082,
  "tags": {
    "amenity": "restaurant",
    "name": "Café Hermès",
    "source": "survey"
  }
},
{
  "type": "node",
  "id": 313951954,
  "lat": 45.1865120,
  "lon": 5.7434067,
  "tags": {
    "amenity": "cafe",
    "name": "Le Clémenceau",
    "source": "v2 ; cadastre-dgi-fr source : Direction Générale des Impôts - Cadastre ; mise à jour : 2009"
  }
},
{
  "type": "node",
  "id": 313952220,
  "lat": 45.1886022,
  "lon": 5.7343082,
  "tags": {
    "amenity": "restaurant",
    "contact:housenumber": "2",
    "contact:street": "Rue Champollion",
    "name": "L'Ultimo",
    "source": "survey"
  }
},
{
  "type": "node",
  "id": 313952306,
  "lat": 45.1885639,
  "lon": 5.7334893,
  "tags": {
    "amenity": "pub",
    "name": "Millburn's Cafe",
    "source": "v2 ; cadastre-dgi-fr source : Direction Générale des Impôts - Cadastre ; mise à jour : 2009"
  }
},
{
  "type": "node",
  "id": 313952496,
  "lat": 45.1873000,
  "lon": 5.7275604,
  "tags": {
    "amenity": "restaurant",
    "cuisine": "sushi",
    "name": "O' Sushi",
    "old_name": "Bergama",
    "source": "survey"
  }
},
{
  "type": "node",
  "id": 313955011,
  "lat": 45.1884204,
  "lon": 5.7158932,
  "tags": {
    "amenity": "cafe",
    "name": "Business Class",
    "old_name": "L'Escarette",
    "source": "survey"
  }
},
{
  "type": "node",
  "id": 315986990,
  "lat": 45.1867994,
  "lon": 5.7237600,
  "tags": {
    "addr:housenumber": "2",
    "addr:street": "Rue Lakanal",
    "amenity": "restaurant",
    "cuisine": "french",
    "name": "Le Café Curieux",
    "phone": "+33438029332",
    "source": "survey",
    "website": "http://www.cafecurieux.com/"
  }
},
{
  "type": "node",
  "id": 315986991,
  "lat": 45.1921633,
  "lon": 5.7194484,
  "tags": {
    "amenity": "fast_food",
    "halal": "yes",
    "name": "Special Food",
    "old_name": "Le Bien Garni",
    "source": "survey"
  }
},
{
  "type": "node",
  "id": 315986993,
  "lat": 45.1911455,
  "lon": 5.7197737,
  "tags": {
    "amenity": "pub",
    "name": "Sun Valley",
    "source": "survey"
  }
},
{
  "type": "node",
  "id": 315986994,
  "lat": 45.1909613,
  "lon": 5.7205227,
  "tags": {
    "amenity": "restaurant",
    "cuisine": "pizza",
    "name": "L'Adagio",
    "source": "v2 ; cadastre-dgi-fr source : Direction Générale des Impôts - Cadastre ; mise à jour : 2009"
  }
},
{
  "type": "node",
  "id": 315986995,
  "lat": 45.1915757,
  "lon": 5.7212206,
  "tags": {
    "amenity": "restaurant",
    "cuisine": "chinese",
    "name": "Saveurs d'Asie",
    "source": "survey"
  }
},
{
  "type": "node",
  "id": 315986996,
  "lat": 45.1912248,
  "lon": 5.7206817,
  "tags": {
    "amenity": "restaurant",
    "cuisine": "pizza",
    "name": "La Chandelle",
    "source": "survey"
  }
},
{
  "type": "node",
  "id": 315986998,
  "lat": 45.1910991,
  "lon": 5.7215309,
  "tags": {
    "amenity": "restaurant",
    "cuisine": "french",
    "name": "Le Bœuf au Comptoir",
    "source": "survey"
  }
},
{
  "type": "node",
  "id": 315987001,
  "lat": 45.1906636,
  "lon": 5.7218316,
  "tags": {
    "amenity": "restaurant",
    "cuisine": "italian",
    "name": "L'Arôme Antique",
    "source": "survey"
  }
},
{
  "type": "node",
  "id": 315987002,
  "lat": 45.1903492,
  "lon": 5.7221659,
  "tags": {
    "amenity": "cafe",
    "name": "Bar de la Meije",
    "source": "survey"
  }
},
{
  "type": "node",
  "id": 315987043,
  "lat": 45.1888344,
  "lon": 5.7224195,
  "tags": {
    "amenity": "fast_food",
    "cuisine": "italian",
    "name": "Mezzo di Pasta",
    "source": "survey"
  }
},
{
  "type": "node",
  "id": 316125288,
  "lat": 45.1848883,
  "lon": 5.7231348,
  "tags": {
    "amenity": "restaurant",
    "name": "Le Cèdre",
    "source": "v2 ; cadastre-dgi-fr source : Direction Générale des Impôts - Cadastre ; mise à jour : 2009"
  }
},
{
  "type": "node",
  "id": 316126153,
  "lat": 45.1839127,
  "lon": 5.7205422,
  "tags": {
    "amenity": "restaurant",
    "cuisine": "pizza",
    "name": "Pizza etc.",
    "old_name": "Alpes Pizzas",
    "source": "survey"
  }
},
{
  "type": "node",
  "id": 317787260,
  "lat": 45.1932635,
  "lon": 5.7321503,
  "tags": {
    "amenity": "restaurant",
    "name": "Crêperie So Krep’",
    "source": "local_knowledge"
  }
},
{
  "type": "node",
  "id": 317787333,
  "lat": 45.1910913,
  "lon": 5.7307451,
  "tags": {
    "amenity": "restaurant",
    "cuisine": "italian",
    "name": "Come Prima",
    "old_name": "Caffè Ristorante Italiano",
    "source": "survey",
    "wheelchair": "limited"
  }
},
{
  "type": "node",
  "id": 318613353,
  "lat": 45.1873950,
  "lon": 5.7210833,
  "tags": {
    "amenity": "restaurant",
    "cuisine": "cambodian",
    "name": "Phnom Penh",
    "source": "survey"
  }
},
{
  "type": "node",
  "id": 318613455,
  "lat": 45.1868711,
  "lon": 5.7211610,
  "tags": {
    "amenity": "restaurant",
    "cuisine": "greek",
    "name": "Polykalo",
    "source": "survey"
  }
},
{
  "type": "node",
  "id": 318613933,
  "lat": 45.1840435,
  "lon": 5.7188986,
  "tags": {
    "amenity": "pub",
    "name": "Loco Mosquito",
    "source": "survey"
  }
},
{
  "type": "node",
  "id": 318614117,
  "lat": 45.1839397,
  "lon": 5.7188269,
  "tags": {
    "amenity": "pub",
    "name": "Bukowski Bar",
    "old_name": "The Roots Bar",
    "source": "survey"
  }
},
{
  "type": "node",
  "id": 319590196,
  "lat": 45.1894745,
  "lon": 5.7240967,
  "tags": {
    "amenity": "pub",
    "name": "Le Palais",
    "source": "survey"
  }
},
{
  "type": "node",
  "id": 336368726,
  "lat": 45.0173579,
  "lon": 6.1199005,
  "tags": {
    "amenity": "restaurant",
    "name": "La Bergerie"
  }
},
{
  "type": "node",
  "id": 336368730,
  "lat": 45.0089451,
  "lon": 6.1054292,
  "tags": {
    "amenity": "restaurant",
    "name": "La TroïKa"
  }
},
{
  "type": "node",
  "id": 339327410,
  "lat": 45.1929898,
  "lon": 5.7314046,
  "tags": {
    "addr:housenumber": "6",
    "addr:postcode": "38000",
    "addr:street": "Place Notre-Dame",
    "amenity": "restaurant",
    "name": "Au Village",
    "source": "v2 ; cadastre-dgi-fr source : Direction Générale des Impôts - Cadastre ; mise à jour : 2009"
  }
},
{
  "type": "node",
  "id": 354601037,
  "lat": 45.1877093,
  "lon": 5.7226918,
  "tags": {
    "amenity": "pub",
    "name": "Le Yassou",
    "source": "survey"
  }
},
{
  "type": "node",
  "id": 361346340,
  "lat": 45.1921958,
  "lon": 5.7711703,
  "tags": {
    "amenity": "cafe",
    "cuisine": "sandwich",
    "name": "Le Camion",
    "wheelchair": "yes"
  }
},
{
  "type": "node",
  "id": 366540598,
  "lat": 45.1884805,
  "lon": 5.7189015,
  "tags": {
    "amenity": "fast_food",
    "cuisine": "pizza",
    "name": "Domino's Pizza",
    "opening_hours": "Mo-Su 11:00-14:00,18:00-23:00",
    "source": "v2 ; cadastre-dgi-fr source : Direction Générale des Impôts - Cadastre ; mise à jour : 2009"
  }
},
{
  "type": "node",
  "id": 366641883,
  "lat": 45.1859941,
  "lon": 5.7227652,
  "tags": {
    "addr:housenumber": "18",
    "addr:street": "Rue Lakanal",
    "amenity": "restaurant",
    "name": "Ding Dingue Dong",
    "old_name": "Kalinka",
    "source": "survey"
  }
},
{
  "type": "node",
  "id": 387000657,
  "lat": 45.1924494,
  "lon": 5.7317546,
  "tags": {
    "amenity": "pub",
    "brewery": "Maredsous",
    "name": "Frères Berthom",
    "source": "v2;cadastre-dgi-fr source : Direction Générale des Impôts - Cadastre;mise à jour : 2009",
    "wheelchair": "no"
  }
},
{
  "type": "node",
  "id": 393540099,
  "lat": 45.3302734,
  "lon": 5.6573942,
  "tags": {
    "amenity": "pub",
    "name": "Bar de la Placette"
  }
},
{
  "type": "node",
  "id": 410625659,
  "lat": 45.1714142,
  "lon": 5.6311288,
  "tags": {
    "amenity": "pub",
    "name": "Les Rocailles",
    "shop": "bakery",
    "source": "GPS"
  }
},
{
  "type": "node",
  "id": 412906814,
  "lat": 45.1870678,
  "lon": 5.7238171,
  "tags": {
    "amenity": "fast_food",
    "cuisine": "pizza",
    "name": "Da Vinci Pizza",
    "old_name": "Pizzeria des Supporters",
    "source": "survey"
  }
},
{
  "type": "node",
  "id": 444665515,
  "lat": 44.9944198,
  "lon": 5.5839353,
  "tags": {
    "amenity": "restaurant",
    "cuisine": "regional",
    "name": "La Soldanelle"
  }
},
{
  "type": "node",
  "id": 457482822,
  "lat": 44.9905031,
  "lon": 5.5950080,
  "tags": {
    "amenity": "fast_food",
    "name": "La Marmotte"
  }
},
{
  "type": "node",
  "id": 457485627,
  "lat": 44.9895876,
  "lon": 5.5964497,
  "tags": {
    "amenity": "restaurant",
    "cuisine": "regional",
    "name": "Les Anémones"
  }
},
{
  "type": "node",
  "id": 471355788,
  "lat": 45.1860822,
  "lon": 5.7186973,
  "tags": {
    "amenity": "restaurant",
    "cuisine": "vietnamese",
    "name": "Tu-Bong Express",
    "source": "survey"
  }
},
{
  "type": "node",
  "id": 471355789,
  "lat": 45.1859116,
  "lon": 5.7188174,
  "tags": {
    "amenity": "restaurant",
    "cuisine": "sushi",
    "name": "Little Sushi",
    "old_name": "Sushi Me",
    "source": "survey"
  }
},
{
  "type": "node",
  "id": 471355830,
  "lat": 45.1859314,
  "lon": 5.7186576,
  "tags": {
    "amenity": "restaurant",
    "name": "Le Sully",
    "source": "survey"
  }
},
{
  "type": "node",
  "id": 471359186,
  "lat": 45.1861276,
  "lon": 5.7187167,
  "tags": {
    "amenity": "bar",
    "name": "Tago Mago",
    "source": "survey"
  }
},
{
  "type": "node",
  "id": 471359778,
  "lat": 45.1862976,
  "lon": 5.7187694,
  "tags": {
    "amenity": "bar",
    "name": "L'Urgence",
    "old_name": "Status",
    "source": "survey"
  }
},
{
  "type": "node",
  "id": 471360494,
  "lat": 45.1857044,
  "lon": 5.7189918,
  "tags": {
    "amenity": "restaurant",
    "cuisine": "japanese",
    "name": "Le Saké",
    "source": "survey",
    "wheelchair": "no"
  }
},
{
  "type": "node",
  "id": 471360816,
  "lat": 45.1858920,
  "lon": 5.7189760,
  "tags": {
    "amenity": "restaurant",
    "cuisine": "chinese",
    "name": "L'Escale de Chine",
    "source": "survey"
  }
},
{
  "type": "node",
  "id": 471361168,
  "lat": 45.1858822,
  "lon": 5.7190553,
  "tags": {
    "amenity": "restaurant",
    "cuisine": "chinese",
    "name": "Le Canard Laqué",
    "source": "survey"
  }
},
{
  "type": "node",
  "id": 471361284,
  "lat": 45.1858527,
  "lon": 5.7192931,
  "tags": {
    "amenity": "restaurant",
    "cuisine": "asian",
    "name": "Baie d'Halong",
    "source": "survey"
  }
},
{
  "type": "node",
  "id": 484922153,
  "lat": 45.1910536,
  "lon": 5.7195239,
  "tags": {
    "amenity": "fast_food",
    "cuisine": "kebab",
    "name": "Syfax",
    "source": "survey"
  }
},
{
  "type": "node",
  "id": 490892469,
  "lat": 45.1910294,
  "lon": 5.7107874,
  "tags": {
    "amenity": "cafe",
    "name": "Brasserie du Col Vert",
    "source": "v2 ; cadastre-dgi-fr source : Direction Générale des Impôts - Cadastre ; mise à jour : 2009"
  }
},
{
  "type": "node",
  "id": 490892581,
  "lat": 45.1908309,
  "lon": 5.7101444,
  "tags": {
    "amenity": "fast_food",
    "cuisine": "sandwich",
    "name": "PeGast",
    "phone": "04 76 49 07 38"
  }
},
{
  "type": "node",
  "id": 493159673,
  "lat": 45.1359240,
  "lon": 5.7714001,
  "tags": {
    "amenity": "restaurant",
    "cuisine": "regional",
    "name": "Le Paragraff"
  }
},
{
  "type": "node",
  "id": 496533260,
  "lat": 45.0236468,
  "lon": 5.5172118,
  "tags": {
    "amenity": "restaurant",
    "cuisine": "regional",
    "name": "Le Dix-neuf"
  }
},
{
  "type": "node",
  "id": 505203674,
  "lat": 45.1913003,
  "lon": 5.7252667,
  "tags": {
    "amenity": "restaurant",
    "name": "Le Petit Montorge",
    "source": "survey"
  }
},
{
  "type": "node",
  "id": 505203677,
  "lat": 45.1907211,
  "lon": 5.7249936,
  "tags": {
    "amenity": "restaurant",
    "name": "Une Tarte Un Café",
    "source": "survey"
  }
},
{
  "type": "node",
  "id": 505204998,
  "lat": 45.1912779,
  "lon": 5.7249354,
  "tags": {
    "amenity": "restaurant",
    "name": "A' Chau",
    "source": "survey"
  }
},
{
  "type": "node",
  "id": 505205000,
  "lat": 45.1915011,
  "lon": 5.7248518,
  "tags": {
    "amenity": "fast_food",
    "name": "Harem",
    "source": "survey"
  }
},
{
  "type": "node",
  "id": 505205001,
  "lat": 45.1905030,
  "lon": 5.7252302,
  "tags": {
    "amenity": "restaurant",
    "name": "Le Coq Hardi",
    "source": "survey"
  }
},
{
  "type": "node",
  "id": 511121074,
  "lat": 45.1153448,
  "lon": 5.3991802,
  "tags": {
    "amenity": "restaurant",
    "name": "Auberge Le Faz"
  }
},
{
  "type": "node",
  "id": 512011423,
  "lat": 45.0914333,
  "lon": 5.3824466,
  "tags": {
    "amenity": "restaurant",
    "name": "Auberge de Presles",
    "website": "www.auberge-presles.com"
  }
},
{
  "type": "node",
  "id": 519665819,
  "lat": 45.1943882,
  "lon": 5.7324270,
  "tags": {
    "amenity": "restaurant",
    "cuisine": "regional",
    "name": "Le 5",
    "source": "v2 ; cadastre-dgi-fr source : Direction Générale des Impôts - Cadastre ; mise à jour : 2009",
    "wheelchair": "limited"
  }
},
{
  "type": "node",
  "id": 519775517,
  "lat": 45.1474300,
  "lon": 5.7508956,
  "tags": {
    "amenity": "cafe",
    "name": "Café de la Mairie"
  }
},
{
  "type": "node",
  "id": 526811225,
  "lat": 45.1520017,
  "lon": 5.7492198,
  "tags": {
    "amenity": "restaurant",
    "cuisine": "pizza",
    "name": "Pizza Lolo",
    "source": "cadastre-dgi-fr source : Direction Générale des Impôts - Cadastre ; mise à jour :2009"
  }
},
{
  "type": "node",
  "id": 526811252,
  "lat": 45.1532063,
  "lon": 5.7490172,
  "tags": {
    "amenity": "restaurant",
    "name": "Le Jardin de l'Odyssée",
    "source": "cadastre-dgi-fr source : Direction Générale des Impôts - Cadastre ; mise à jour :2009",
    "wheelchair": "yes"
  }
},
{
  "type": "node",
  "id": 527803228,
  "lat": 45.1427234,
  "lon": 5.7209399,
  "tags": {
    "amenity": "pub",
    "name": "L'Écureuil",
    "source": "cadastre-dgi-fr source : Direction Générale des Impôts - Cadastre ; mise à jour : 2009"
  }
},
{
  "type": "node",
  "id": 528764585,
  "lat": 45.1481001,
  "lon": 5.7524844,
  "tags": {
    "amenity": "restaurant",
    "name": "Pizzeria du Château",
    "source": "cadastre-dgi-fr source : Direction Générale des Impôts - Cadastre ; mise à jour :2009"
  }
},
{
  "type": "node",
  "id": 529010277,
  "lat": 45.1728271,
  "lon": 5.7333383,
  "tags": {
    "amenity": "bar",
    "name": "Le Bistrot",
    "source": "v2 ; cadastre-dgi-fr source : Direction Générale des Impôts - Cadastre ; mise à jour : 2009"
  }
},
{
  "type": "node",
  "id": 529914629,
  "lat": 45.1525522,
  "lon": 5.7489464,
  "tags": {
    "amenity": "restaurant",
    "cuisine": "regional",
    "name": "Le Petit Noyer",
    "source": "cadastre-dgi-fr source : Direction Générale des Impôts - Cadastre ; mise à jour :2009"
  }
},
{
  "type": "node",
  "id": 530698082,
  "lat": 45.1364144,
  "lon": 5.7698706,
  "tags": {
    "amenity": "restaurant",
    "name": "Pizzeria Restaurant Napoléon",
    "source": "cadastre-dgi-fr source : Direction Générale des Impôts - Cadastre ; mise à jour :2009"
  }
},
{
  "type": "node",
  "id": 532620909,
  "lat": 45.3236472,
  "lon": 5.9309978,
  "tags": {
    "amenity": "cafe",
    "name": "Café de la Gare",
    "source": "cadastre-dgi-fr source : Direction Générale des Impôts - Cadastre ; mise à jour : 06-03-2009"
  }
},
{
  "type": "node",
  "id": 532620915,
  "lat": 45.3238168,
  "lon": 5.9311302,
  "tags": {
    "amenity": "cafe",
    "name": "Café de la Mairie",
    "source": "cadastre-dgi-fr source : Direction Générale des Impôts - Cadastre ; mise à jour : 06-03-2009"
  }
},
{
  "type": "node",
  "id": 533727580,
  "lat": 45.1921115,
  "lon": 5.7282153,
  "tags": {
    "amenity": "pub",
    "name": "The Druid's Pub",
    "source": "survey"
  }
},
{
  "type": "node",
  "id": 533728705,
  "lat": 45.1930117,
  "lon": 5.7290764,
  "tags": {
    "amenity": "restaurant",
    "name": "La Peña Andaluza",
    "source": "survey"
  }
},
{
  "type": "node",
  "id": 533729034,
  "lat": 45.1928717,
  "lon": 5.7299372,
  "tags": {
    "amenity": "restaurant",
    "name": "L'Épicurien",
    "source": "survey"
  }
},
{
  "type": "node",
  "id": 533729182,
  "lat": 45.1922260,
  "lon": 5.7278650,
  "tags": {
    "amenity": "cafe",
    "name": "Cafe de la Mairie",
    "source": "survey"
  }
},
{
  "type": "node",
  "id": 533729510,
  "lat": 45.1923332,
  "lon": 5.7309397,
  "tags": {
    "amenity": "cafe",
    "name": "Le XIII",
    "source": "v2 ; cadastre-dgi-fr source : Direction Générale des Impôts - Cadastre ; mise à jour : 2009"
  }
},
{
  "type": "node",
  "id": 533729757,
  "lat": 45.1970002,
  "lon": 5.7355486,
  "tags": {
    "amenity": "fast_food",
    "name": "Aroma Pizza",
    "source": "v2 ; cadastre-dgi-fr source : Direction Générale des Impôts - Cadastre ; mise à jour : 2009"
  }
},
{
  "type": "node",
  "id": 533729938,
  "lat": 45.1985164,
  "lon": 5.7389284,
  "tags": {
    "amenity": "restaurant",
    "name": "O' Brother",
    "source": "v2 ; cadastre-dgi-fr source : Direction Générale des Impôts - Cadastre ; mise à jour : 2009"
  }
},
{
  "type": "node",
  "id": 534414576,
  "lat": 45.1903349,
  "lon": 5.7216237,
  "tags": {
    "amenity": "fast_food",
    "contact:phone": "+33 4 56 00 23 12",
    "cuisine": "pizza",
    "drive_in": "no",
    "name": "La Cantina",
    "smoking": "no",
    "source": "survey"
  }
},
{
  "type": "node",
  "id": 536481206,
  "lat": 45.0757569,
  "lon": 5.7722602,
  "tags": {
    "amenity": "restaurant",
    "name": "Relais du Château",
    "source": "cadastre-dgi-fr source : Direction Générale des Impôts - Cadastre ; mise à jour :2009"
  }
},
{
  "type": "node",
  "id": 539818115,
  "lat": 45.1114035,
  "lon": 5.7862319,
  "tags": {
    "amenity": "restaurant",
    "cuisine": "regional",
    "name": "Le Nivernais",
    "source": "cadastre-dgi-fr source : Direction Générale des Impôts - Cadastre ; mise à jour :2009"
  }
},
{
  "type": "node",
  "id": 566504267,
  "lat": 45.0091308,
  "lon": 6.1437003,
  "tags": {
    "amenity": "restaurant"
  }
},
{
  "type": "node",
  "id": 566506477,
  "lat": 45.0158812,
  "lon": 6.1650217,
  "tags": {
    "amenity": "restaurant",
    "name": "La Fée"
  }
},
{
  "type": "node",
  "id": 566586936,
  "lat": 44.9967733,
  "lon": 6.2044909,
  "tags": {
    "amenity": "restaurant"
  }
},
{
  "type": "node",
  "id": 575761390,
  "lat": 45.1929997,
  "lon": 5.7088321,
  "tags": {
    "amenity": "restaurant",
    "name": "Brasserie du Carré",
    "source": "v2 ; cadastre-dgi-fr source : Direction Générale des Impôts - Cadastre ; mise à jour : 2009"
  }
},
{
  "type": "node",
  "id": 575765156,
  "lat": 45.1927663,
  "lon": 5.7089823,
  "tags": {
    "amenity": "fast_food",
    "name": "Point Chaud",
    "source": "v2 ; cadastre-dgi-fr source : Direction Générale des Impôts - Cadastre ; mise à jour : 2009"
  }
},
{
  "type": "node",
  "id": 582445417,
  "lat": 44.8115240,
  "lon": 5.5723985,
  "tags": {
    "amenity": "bar",
    "name": "Le Randonneur"
  }
},
{
  "type": "node",
  "id": 583485996,
  "lat": 45.2218675,
  "lon": 5.8121373,
  "tags": {
    "amenity": "restaurant",
    "name": "Le Temps des Mets"
  }
},
{
  "type": "node",
  "id": 599769724,
  "lat": 45.3930099,
  "lon": 6.0752549,
  "tags": {
    "amenity": "bar",
    "name": "Pub"
  }
},
{
  "type": "node",
  "id": 601521059,
  "lat": 45.3937736,
  "lon": 6.0719845,
  "tags": {
    "amenity": "public_building",
    "name": "Centre des Finances Publiques"
  }
},
{
  "type": "node",
  "id": 601523626,
  "lat": 45.3929943,
  "lon": 6.0736032,
  "tags": {
    "amenity": "fast_food",
    "cuisine": "kebab",
    "name": "Istanbul Kebab"
  }
},
{
  "type": "node",
  "id": 606321936,
  "lat": 45.2221679,
  "lon": 5.8121413,
  "tags": {
    "amenity": "fast_food",
    "name": "Epicuria"
  }
},
{
  "type": "node",
  "id": 607954587,
  "lat": 45.1885361,
  "lon": 5.7125838,
  "tags": {
    "addr:housenumber": "102",
    "addr:postcode": "38000",
    "addr:street": "cours Berriat",
    "amenity": "bar",
    "name": "Brasserie La City",
    "wheelchair": "no"
  }
},
{
  "type": "node",
  "id": 615075274,
  "lat": 44.9978271,
  "lon": 6.1718598,
  "tags": {
    "amenity": "restaurant",
    "name": "Panobar"
  }
},
{
  "type": "node",
  "id": 615170618,
  "lat": 45.2508737,
  "lon": 6.0020901,
  "tags": {
    "amenity": "restaurant",
    "beverage": "yes",
    "ele": "1550",
    "name": "Chalet des Cortillets",
    "source": "GPS",
    "tourism": "alpine_hut"
  }
},
{
  "type": "node",
  "id": 615170622,
  "lat": 45.2757532,
  "lon": 6.0415939,
  "tags": {
    "amenity": "restaurant",
    "beverage": "yes",
    "name": "Pincerie",
    "source": "GPS"
  }
},
{
  "type": "node",
  "id": 617378330,
  "lat": 45.1853987,
  "lon": 5.7230923,
  "tags": {
    "amenity": "cafe",
    "cafe": "yes",
    "clothes": "yes",
    "name": "Regard d'Ailleurs",
    "opening_hours": "Tu-Sa 10:00-19:00",
    "shop": "clothes"
  }
},
{
  "type": "node",
  "id": 617970326,
  "lat": 45.1909564,
  "lon": 5.7324526,
  "tags": {
    "amenity": "restaurant",
    "name": "La Panse"
  }
},
{
  "type": "node",
  "id": 618396476,
  "lat": 45.2544856,
  "lon": 6.0243967,
  "tags": {
    "amenity": "restaurant",
    "beverage": "yes",
    "cuisine": "regional",
    "name": "Chalet des Oudis",
    "source": "GPS",
    "website": "www.chalet-des-oudis.com"
  }
},
{
  "type": "node",
  "id": 619012591,
  "lat": 45.1910494,
  "lon": 5.7147870,
  "tags": {
    "amenity": "cafe",
    "name": "Brioche Dorée"
  }
},
{
  "type": "node",
  "id": 619012594,
  "lat": 45.1927237,
  "lon": 5.7286881,
  "tags": {
    "amenity": "fast_food",
    "cuisine": "kebab",
    "name": "Carré Rouge",
    "source": "survey"
  }
},
{
  "type": "node",
  "id": 620140541,
  "lat": 45.1479833,
  "lon": 5.7129869,
  "tags": {
    "amenity": "restaurant",
    "cuisine": "pizza;pasta",
    "name": "Pass'ta Pizz...",
    "takeaway": "yes"
  }
},
{
  "type": "node",
  "id": 622057665,
  "lat": 45.1586997,
  "lon": 5.7341509,
  "tags": {
    "amenity": "restaurant",
    "name": "Plazza hôtel",
    "source": "v2 ; cadastre-dgi-fr source : Direction Générale des Impôts - Cadastre ; mise à jour : 2009"
  }
},
{
  "type": "node",
  "id": 652135215,
  "lat": 45.1867496,
  "lon": 5.7182904,
  "tags": {
    "amenity": "bar",
    "name": "L'Art-Ti-Cho",
    "source": "survey"
  }
},
{
  "type": "node",
  "id": 652135361,
  "lat": 45.1874708,
  "lon": 5.7185269,
  "tags": {
    "addr:housenumber": "54",
    "addr:street": "Cours Jean Jaurès",
    "amenity": "restaurant",
    "name": "Le Mezzé",
    "source": "survey"
  }
},
{
  "type": "node",
  "id": 658178609,
  "lat": 45.1866006,
  "lon": 5.7182380,
  "tags": {
    "amenity": "fast_food",
    "cuisine": "kebab",
    "name": "Dijle",
    "source": "survey"
  }
},
{
  "type": "node",
  "id": 658178612,
  "lat": 45.1869798,
  "lon": 5.7183659,
  "tags": {
    "amenity": "restaurant",
    "cuisine": "indian",
    "name": "Bombay",
    "source": "survey"
  }
},
{
  "type": "node",
  "id": 658181204,
  "lat": 45.1861817,
  "lon": 5.7180999,
  "tags": {
    "amenity": "bar",
    "name": "Le Café Noir",
    "source": "survey"
  }
},
{
  "type": "node",
  "id": 659033912,
  "lat": 45.1784147,
  "lon": 5.7094015,
  "tags": {
    "amenity": "cafe",
    "name": "Le café des enfants"
  }
},
{
  "type": "node",
  "id": 660004479,
  "lat": 45.1923114,
  "lon": 5.6996198,
  "tags": {
    "amenity": "fast_food",
    "cuisine": "sandwich",
    "name": "O'sandwichs"
  }
},
{
  "type": "node",
  "id": 660004482,
  "lat": 45.1925727,
  "lon": 5.6970013,
  "tags": {
    "amenity": "restaurant",
    "cuisine": "pizza",
    "name": "Le relais des motards"
  }
},
{
  "type": "node",
  "id": 660004490,
  "lat": 45.1796121,
  "lon": 5.7048949,
  "tags": {
    "amenity": "fast_food",
    "cuisine": "chicken",
    "name": "Chicken Alpes"
  }
},
{
  "type": "node",
  "id": 663206901,
  "lat": 45.1892581,
  "lon": 5.7202756,
  "tags": {
    "amenity": "fast_food",
    "name": "Pâte à Tram",
    "source": "survey"
  }
},
{
  "type": "node",
  "id": 663463257,
  "lat": 45.1534237,
  "lon": 5.7282464,
  "tags": {
    "amenity": "public_building",
    "name": "Centre social Anne-Frank",
    "source": "cadastre-dgi-fr source : Direction Générale des Impôts - Cadastre ; mise à jour : 2010"
  }
},
{
  "type": "node",
  "id": 664458672,
  "lat": 45.1906336,
  "lon": 5.7302098,
  "tags": {
    "amenity": "cafe",
    "name": "L'Apollon",
    "source": "survey"
  }
},
{
  "type": "node",
  "id": 664459002,
  "lat": 45.1961630,
  "lon": 5.7350030,
  "tags": {
    "addr:housenumber": "42",
    "addr:street": "avenue Maréchal Randon",
    "amenity": "restaurant",
    "cuisine": "italian",
    "name": "Le Rossini",
    "website": "http://www.lerossini.com"
  }
},
{
  "type": "node",
  "id": 664566826,
  "lat": 45.1934000,
  "lon": 5.7322445,
  "tags": {
    "amenity": "cafe",
    "name": "ND Café"
  }
},
{
  "type": "node",
  "id": 664568120,
  "lat": 45.1900190,
  "lon": 5.7291430,
  "tags": {
    "amenity": "restaurant",
    "name": "Le Mandala"
  }
},
{
  "type": "node",
  "id": 664607626,
  "lat": 45.1896079,
  "lon": 5.7158042,
  "tags": {
    "amenity": "restaurant",
    "name": "La Ciboulette"
  }
},
{
  "type": "node",
  "id": 664607644,
  "lat": 45.1897516,
  "lon": 5.7157615,
  "tags": {
    "amenity": "restaurant",
    "cuisine": "pizza",
    "name": "Chez Pierre"
  }
},
{
  "type": "node",
  "id": 666939345,
  "lat": 45.1986959,
  "lon": 5.7389031,
  "tags": {
    "amenity": "restaurant",
    "name": "Pizzeria du Grésivaudan"
  }
},
{
  "type": "node",
  "id": 667275794,
  "lat": 45.1882320,
  "lon": 5.7194486,
  "tags": {
    "amenity": "restaurant",
    "cuisine": "indian",
    "name": "Prince Indien",
    "source": "survey"
  }
},
{
  "type": "node",
  "id": 667276023,
  "lat": 45.1870248,
  "lon": 5.7190141,
  "tags": {
    "amenity": "restaurant",
    "cuisine": "indian",
    "name": "Lanka",
    "source": "survey"
  }
},
{
  "type": "node",
  "id": 683444208,
  "lat": 45.2974806,
  "lon": 5.6364232,
  "tags": {
    "amenity": "restaurant",
    "cuisine": "pizza",
    "name": "Pizza & Pasta",
    "source": "cadastre-dgi-fr source : Direction G�n�rale des Imp�ts - Cadastre ; mise � jour : 2010"
  }
},
{
  "type": "node",
  "id": 687004264,
  "lat": 44.9721733,
  "lon": 5.8249859,
  "tags": {
    "amenity": "pub",
    "name": "Les carcaris"
  }
},
{
  "type": "node",
  "id": 691522178,
  "lat": 45.3900650,
  "lon": 5.3622122,
  "tags": {
    "amenity": "pub",
    "name": "Bar du Parking"
  }
},
{
  "type": "node",
  "id": 691522256,
  "lat": 45.3917223,
  "lon": 5.3615150,
  "tags": {
    "amenity": "pub",
    "name": "Bar de la Poste"
  }
},
{
  "type": "node",
  "id": 700206719,
  "lat": 45.1865168,
  "lon": 5.7448134,
  "tags": {
    "amenity": "bar",
    "name": "Le Valmy",
    "source": "cadastre-dgi-fr source : Direction Générale des Impôts - Cadastre ; mise à jour : 2010"
  }
},
{
  "type": "node",
  "id": 702085728,
  "lat": 45.1835725,
  "lon": 5.7540106,
  "tags": {
    "amenity": "public_building",
    "name": "Pôle Jeunesse",
    "source": "cadastre-dgi-fr source : Direction Générale des Impôts - Cadastre ; mise à jour : 2010"
  }
},
{
  "type": "node",
  "id": 705325063,
  "lat": 45.4157094,
  "lon": 5.5537089,
  "tags": {
    "amenity": "restaurant",
    "cuisine": "pizza",
    "name": "Pizza Fréro"
  }
},
{
  "type": "node",
  "id": 706467897,
  "lat": 45.1759525,
  "lon": 5.5447954,
  "tags": {
    "amenity": "restaurant",
    "name": "La Buffe",
    "source": "cadastre-dgi-fr source : Direction G�n�rale des Imp�ts - Cadastre ; mise � jour : 2010",
    "stars": "2",
    "tourism": "hotel"
  }
},
{
  "type": "node",
  "id": 717265428,
  "lat": 45.1870478,
  "lon": 5.7323651,
  "tags": {
    "addr:city": "Grenoble",
    "addr:housenumber": "14",
    "addr:postcode": "38000",
    "addr:street": "Rue Fantin Latour",
    "amenity": "pub",
    "contact:phone": "+33 4 76445217",
    "name": "Shannon Pub",
    "opening_hours": "Mo-Sa 17:00-02:00",
    "source": "v2 ; cadastre-dgi-fr source : Direction Générale des Impôts - Cadastre ; mise à jour : 2009"
  }
},
{
  "type": "node",
  "id": 732737123,
  "lat": 45.3189103,
  "lon": 5.5208005,
  "tags": {
    "amenity": "restaurant"
  }
},
{
  "type": "node",
  "id": 735107912,
  "lat": 45.2964389,
  "lon": 5.4821757,
  "tags": {
    "amenity": "fast_food"
  }
},
{
  "type": "node",
  "id": 735107927,
  "lat": 45.3009972,
  "lon": 5.4916170,
  "tags": {
    "amenity": "bar",
    "name": "Café de la Gare"
  }
},
{
  "type": "node",
  "id": 735107930,
  "lat": 45.3006651,
  "lon": 5.4890460,
  "tags": {
    "amenity": "restaurant",
    "name": "La Bohème"
  }
},
{
  "type": "node",
  "id": 735118759,
  "lat": 45.2960465,
  "lon": 5.4833344,
  "tags": {
    "amenity": "bar"
  }
},
{
  "type": "node",
  "id": 735118763,
  "lat": 45.2959332,
  "lon": 5.4835382,
  "tags": {
    "amenity": "restaurant"
  }
},
{
  "type": "node",
  "id": 735118795,
  "lat": 45.2967571,
  "lon": 5.4831565,
  "tags": {
    "amenity": "bar",
    "name": "Café de L'Eglise"
  }
},
{
  "type": "node",
  "id": 738867299,
  "lat": 45.1276926,
  "lon": 5.5888080,
  "tags": {
    "amenity": "restaurant",
    "name": "Hôtel du Col de l'Arc"
  }
},
{
  "type": "node",
  "id": 739435741,
  "lat": 45.3089109,
  "lon": 5.4955539,
  "tags": {
    "amenity": "fast_food"
  }
},
{
  "type": "node",
  "id": 740166852,
  "lat": 45.4153700,
  "lon": 5.8535565,
  "tags": {
    "amenity": "restaurant",
    "name": "Le château de Montbel"
  }
},
{
  "type": "node",
  "id": 743178837,
  "lat": 45.3085741,
  "lon": 5.4076682,
  "tags": {
    "amenity": "restaurant",
    "description": "ouvert sur réservation",
    "name": "Le Camp de César"
  }
},
{
  "type": "node",
  "id": 746870546,
  "lat": 45.1747665,
  "lon": 5.2155167,
  "tags": {
    "amenity": "restaurant",
    "cuisine": "pizza",
    "name": "Mon manège à moi",
    "source": "cadastre-dgi-fr source : Direction Générale des Impôts - Cadastre ; mise à jour : 2010"
  }
},
{
  "type": "node",
  "id": 747858164,
  "lat": 45.1906740,
  "lon": 5.7246547,
  "tags": {
    "amenity": "restaurant",
    "name": "Le Lyonnais",
    "source": "survey"
  }
},
{
  "type": "node",
  "id": 747859260,
  "lat": 45.1901886,
  "lon": 5.7247927,
  "tags": {
    "amenity": "restaurant",
    "name": "Les Archers",
    "source": "survey"
  }
},
{
  "type": "node",
  "id": 749761056,
  "lat": 45.2082342,
  "lon": 5.4002475,
  "tags": {
    "amenity": "restaurant",
    "cuisine": "pizza",
    "name": "Restaurant Pizzeria Le Rimini",
    "source": "cadastre-dgi-fr source : Direction Générale des Impôts - Cadastre ; mise à jour :2010"
  }
},
{
  "type": "node",
  "id": 750970481,
  "lat": 45.1828555,
  "lon": 5.7371337,
  "tags": {
    "amenity": "restaurant",
    "cuisine": "pizza",
    "name": "Côté Parc",
    "source": "survey"
  }
},
{
  "type": "node",
  "id": 751070784,
  "lat": 45.2711330,
  "lon": 5.8879820,
  "tags": {
    "amenity": "fast_food"
  }
},
{
  "type": "node",
  "id": 766742393,
  "lat": 45.1944301,
  "lon": 5.7112116,
  "tags": {
    "amenity": "cafe",
    "name": "Le Petit Felix"
  }
},
{
  "type": "node",
  "id": 767090919,
  "lat": 45.2035964,
  "lon": 5.7636008,
  "tags": {
    "amenity": "fast_food",
    "cuisine": "burger",
    "name": "McDonald's"
  }
},
{
  "type": "node",
  "id": 767420307,
  "lat": 45.1885792,
  "lon": 5.7189346,
  "tags": {
    "amenity": "fast_food",
    "cuisine": "turkish",
    "name": "Le Tacos de Grenoble",
    "source": "cadastre-dgi-fr source : Direction Générale des Impôts - Cadastre. Mise à jour : 2010"
  }
},
{
  "type": "node",
  "id": 783733600,
  "lat": 45.1255356,
  "lon": 5.9025706,
  "tags": {
    "amenity": "restaurant",
    "beverage": "yes",
    "name": "Restaurant de la Croix",
    "note": "nouveau restaurant semi-enterré"
  }
},
{
  "type": "node",
  "id": 794278693,
  "lat": 45.0239994,
  "lon": 5.7733255,
  "tags": {
    "amenity": "bar",
    "source": "cadastre-dgi-fr source : Direction Générale des Impôts - Cadastre ; mise à jour :2010+ Mes Traces GPS"
  }
},
{
  "type": "node",
  "id": 798569659,
  "lat": 45.2115634,
  "lon": 5.7870809,
  "tags": {
    "amenity": "fast_food",
    "name": "Class'Croute"
  }
},
{
  "type": "node",
  "id": 812024395,
  "lat": 44.9887994,
  "lon": 6.0785851,
  "tags": {
    "amenity": "cafe"
  }
},
{
  "type": "node",
  "id": 812024397,
  "lat": 44.9882053,
  "lon": 6.0770044,
  "tags": {
    "amenity": "cafe",
    "name": "La Marmotte"
  }
},
{
  "type": "node",
  "id": 813524820,
  "lat": 44.9949196,
  "lon": 6.2144587,
  "tags": {
    "amenity": "bar",
    "name": "Go-Shred"
  }
},
{
  "type": "node",
  "id": 857410805,
  "lat": 45.1799035,
  "lon": 5.7104157,
  "tags": {
    "amenity": "fast_food",
    "cuisine": "turkish",
    "name": "Zagros"
  }
},
{
  "type": "node",
  "id": 857410807,
  "lat": 45.1798845,
  "lon": 5.7085218,
  "tags": {
    "amenity": "cafe",
    "name": "Le Vallier"
  }
},
{
  "type": "node",
  "id": 857513844,
  "lat": 45.1799048,
  "lon": 5.7106655,
  "tags": {
    "amenity": "fast_food",
    "cuisine": "pizza",
    "name": "Pop Pizza",
    "wheelchair": "no"
  }
},
{
  "type": "node",
  "id": 858143618,
  "lat": 45.1802920,
  "lon": 5.7058879,
  "tags": {
    "amenity": "cafe",
    "name": "Le Méditerranée"
  }
},
{
  "type": "node",
  "id": 858518111,
  "lat": 45.1809393,
  "lon": 5.7269202,
  "tags": {
    "amenity": "cafe",
    "name": "L'Auteuil"
  }
},
{
  "type": "node",
  "id": 860233877,
  "lat": 45.1928322,
  "lon": 5.7283626,
  "tags": {
    "amenity": "cafe",
    "name": "Café de la Table Ronde",
    "smoking": "outside",
    "source": "survey",
    "wheelchair": "no"
  }
},
{
  "type": "node",
  "id": 871754057,
  "lat": 45.1303497,
  "lon": 5.5814642,
  "tags": {
    "amenity": "restaurant",
    "name": "Brasserie du Marais"
  }
},
{
  "type": "node",
  "id": 871759300,
  "lat": 45.1282375,
  "lon": 5.5895260,
  "tags": {
    "amenity": "bar",
    "name": "Le Pic St Michel"
  }
},
{
  "type": "node",
  "id": 871759301,
  "lat": 45.1283169,
  "lon": 5.5889405,
  "tags": {
    "amenity": "restaurant",
    "name": "La Providence"
  }
},
{
  "type": "node",
  "id": 901584181,
  "lat": 45.1790087,
  "lon": 5.7295927,
  "tags": {
    "amenity": "restaurant",
    "name": "Le Florentin"
  }
},
{
  "type": "node",
  "id": 930205899,
  "lat": 45.4149876,
  "lon": 5.5552804,
  "tags": {
    "amenity": "restaurant",
    "name": "L'Escale",
    "tourism": "hotel"
  }
},
{
  "type": "node",
  "id": 930222897,
  "lat": 45.4165419,
  "lon": 5.5524624,
  "tags": {
    "amenity": "cafe",
    "name": "Le Clermont Bar",
    "shop": "kiosk"
  }
},
{
  "type": "node",
  "id": 931735476,
  "lat": 45.2176516,
  "lon": 5.8082828,
  "tags": {
    "amenity": "fast_food",
    "name": "L'Empire"
  }
},
{
  "type": "node",
  "id": 931735481,
  "lat": 45.2176145,
  "lon": 5.8085126,
  "tags": {
    "amenity": "restaurant",
    "name": "L'Esprit Bistrot"
  }
},
{
  "type": "node",
  "id": 931735482,
  "lat": 45.2175938,
  "lon": 5.8083142,
  "tags": {
    "amenity": "restaurant",
    "name": "L'Amaretto"
  }
},
{
  "type": "node",
  "id": 946567405,
  "lat": 45.1873369,
  "lon": 5.7111205,
  "tags": {
    "amenity": "pub",
    "name": "Brasserie Saint-Christophe",
    "wheelchair": "limited"
  }
},
{
  "type": "node",
  "id": 946567411,
  "lat": 45.1890215,
  "lon": 5.7052046,
  "tags": {
    "amenity": "restaurant",
    "cuisine": "regional",
    "name": "Le Mas Bottero",
    "wheelchair": "no"
  }
},
{
  "type": "node",
  "id": 946567415,
  "lat": 45.1842208,
  "lon": 5.7057700,
  "tags": {
    "amenity": "pub",
    "name": "Brasserie Le Jet 7"
  }
},
{
  "type": "node",
  "id": 946567422,
  "lat": 45.1844350,
  "lon": 5.7054677,
  "tags": {
    "amenity": "fast_food",
    "cuisine": "pizza",
    "name": "Pizza Vartan",
    "source": "survey"
  }
},
{
  "type": "node",
  "id": 946567426,
  "lat": 45.1859179,
  "lon": 5.7059218,
  "tags": {
    "amenity": "pub",
    "name": "Le Transvaal",
    "source": "survey"
  }
},
{
  "type": "node",
  "id": 957256332,
  "lat": 45.1925373,
  "lon": 5.7239871,
  "tags": {
    "amenity": "pub",
    "name": "Le Bukana",
    "source": "survey"
  }
},
{
  "type": "node",
  "id": 958192847,
  "lat": 45.1983454,
  "lon": 5.7379749,
  "tags": {
    "amenity": "bar",
    "shop": "newsagent"
  }
},
{
  "type": "node",
  "id": 958198742,
  "lat": 45.1815314,
  "lon": 5.7294584,
  "tags": {
    "amenity": "restaurant",
    "cuisine": "thai",
    "name": "Lanna Thai"
  }
},
{
  "type": "node",
  "id": 958198750,
  "lat": 45.1820976,
  "lon": 5.7294153,
  "tags": {
    "amenity": "restaurant",
    "name": "Le Louxor",
    "source": "survey"
  }
},
{
  "type": "node",
  "id": 959594740,
  "lat": 45.2550111,
  "lon": 5.6652011,
  "tags": {
    "amenity": "cafe",
    "name": "Bar Café La Lutinière",
    "source": "cadastre-dgi-fr source : Direction Générale des Impôts - Cadastre ; mise à jour :2010"
  }
},
{
  "type": "node",
  "id": 960420191,
  "lat": 45.1975120,
  "lon": 5.7127077,
  "tags": {
    "amenity": "fast_food",
    "name": "Chez Marcel",
    "source": "cadastre-dgi-fr source : Direction Générale des Impôts - Cadastre ; mise à jour : 2010"
  }
},
{
  "type": "node",
  "id": 960512827,
  "lat": 45.1833414,
  "lon": 5.7225877,
  "tags": {
    "amenity": "restaurant",
    "cuisine": "sushi",
    "name": "Ayako Sushi",
    "wheelchair": "limited"
  }
},
{
  "type": "node",
  "id": 960524525,
  "lat": 45.1835382,
  "lon": 5.7231547,
  "tags": {
    "amenity": "fast_food",
    "name": "Subway"
  }
},
{
  "type": "node",
  "id": 960524536,
  "lat": 45.1836453,
  "lon": 5.7234766,
  "tags": {
    "amenity": "restaurant",
    "name": "Spuntino"
  }
},
{
  "type": "node",
  "id": 960524539,
  "lat": 45.1841034,
  "lon": 5.7244024,
  "tags": {
    "amenity": "fast_food",
    "name": "Planetalis",
    "source": "cadastre-dgi-fr source : Direction Générale des Impôts - Cadastre. Mise à jour : 2010"
  }
},
{
  "type": "node",
  "id": 961806833,
  "lat": 45.1855945,
  "lon": 5.7245676,
  "tags": {
    "amenity": "public_building",
    "name": "Unicef"
  }
},
{
  "type": "node",
  "id": 961806837,
  "lat": 45.1856722,
  "lon": 5.7247607,
  "tags": {
    "amenity": "pub",
    "brewery": "grimbergen",
    "name": "Le Natation"
  }
},
{
  "type": "node",
  "id": 961816880,
  "lat": 45.1776560,
  "lon": 5.7261426,
  "tags": {
    "amenity": "pub",
    "name": "Le Roc Bar"
  }
},
{
  "type": "node",
  "id": 961843558,
  "lat": 45.1804939,
  "lon": 5.7148620,
  "tags": {
    "amenity": "pub",
    "name": "Le Lautrec"
  }
},
{
  "type": "node",
  "id": 971186908,
  "lat": 45.1814477,
  "lon": 5.7285070,
  "tags": {
    "amenity": "restaurant",
    "name": "La Charbonade",
    "phone": "+33 4 76474307"
  }
},
{
  "type": "node",
  "id": 971186910,
  "lat": 45.1812624,
  "lon": 5.7297203,
  "tags": {
    "amenity": "restaurant",
    "name": "Le Saint-Nicolas"
  }
},
{
  "type": "node",
  "id": 971186920,
  "lat": 45.1814768,
  "lon": 5.7283193,
  "tags": {
    "amenity": "restaurant",
    "name": "Le Marie Margaux",
    "phone": "+33 4 76464646"
  }
},
{
  "type": "node",
  "id": 971196825,
  "lat": 45.1891995,
  "lon": 5.7186703,
  "tags": {
    "amenity": "restaurant",
    "cuisine": "indian",
    "name": "Shri Ganesh",
    "old_name": "Casa Miguel"
  }
},
{
  "type": "node",
  "id": 971969213,
  "lat": 45.1839695,
  "lon": 5.7559005,
  "tags": {
    "amenity": "pub",
    "name": "Casa Do Benfica S.M.H."
  }
},
{
  "type": "node",
  "id": 972169966,
  "lat": 45.0754025,
  "lon": 5.7713553,
  "tags": {
    "amenity": "restaurant",
    "cuisine": "italian",
    "name": "Restaurant du Parc"
  }
},
{
  "type": "node",
  "id": 972169973,
  "lat": 45.0755880,
  "lon": 5.7708484,
  "tags": {
    "amenity": "restaurant",
    "cuisine": "italian",
    "name": "Pizzeria Arcano",
    "phone": "04 76 78 85 48"
  }
},
{
  "type": "node",
  "id": 975484972,
  "lat": 45.1826746,
  "lon": 5.7582296,
  "tags": {
    "addr:city": "Saint Martin d'hères",
    "addr:country": "FR",
    "addr:housenumber": "160",
    "addr:street": "Avenue Ambroise Croizat",
    "amenity": "fast_food",
    "cuisine": "kebab",
    "name": "L'Atlas"
  }
},
{
  "type": "node",
  "id": 975484978,
  "lat": 45.1827150,
  "lon": 5.7580812,
  "tags": {
    "addr:city": "Saint Martin d'hères",
    "addr:country": "FR",
    "addr:housenumber": "156",
    "addr:street": "Avenue Ambroise Croizat",
    "amenity": "fast_food",
    "cuisine": "pizza",
    "name": "Pizza Pizz",
    "phone": "+33 476421996"
  }
},
{
  "type": "node",
  "id": 979613954,
  "lat": 45.1393380,
  "lon": 5.7936063,
  "tags": {
    "amenity": "pub"
  }
},
{
  "type": "node",
  "id": 984881685,
  "lat": 45.1996992,
  "lon": 5.6687679,
  "tags": {
    "amenity": "fast_food",
    "cuisine": "sandwich;pizza",
    "name": "Pizza Sandwich"
  }
},
{
  "type": "node",
  "id": 985107916,
  "lat": 45.2034226,
  "lon": 5.7652902,
  "tags": {
    "amenity": "pub",
    "name": "Le Phoenix"
  }
},
{
  "type": "node",
  "id": 985116504,
  "lat": 45.2018266,
  "lon": 5.7591486,
  "tags": {
    "amenity": "restaurant",
    "name": "Le Mercure"
  }
},
{
  "type": "node",
  "id": 988592676,
  "lat": 45.1471209,
  "lon": 5.7513246,
  "tags": {
    "amenity": "cafe",
    "name": "Stop Bar",
    "source": "cadastre-dgi-fr source : Direction Générale des Impôts - Cadastre ; mise à jour :2010"
  }
},
{
  "type": "node",
  "id": 989971883,
  "lat": 45.1911173,
  "lon": 5.7328647,
  "tags": {
    "amenity": "cafe",
    "name": "Café De France",
    "source": "cadastre-dgi-fr source : Direction Générale des Impôts - Cadastre ; mise à jour : 2010"
  }
},
{
  "type": "node",
  "id": 1003858771,
  "lat": 45.1655720,
  "lon": 5.7266108,
  "tags": {
    "amenity": "fast_food",
    "name": "Les 4 Saisons"
  }
},
{
  "type": "node",
  "id": 1008928523,
  "lat": 45.1920963,
  "lon": 5.7317326,
  "tags": {
    "amenity": "bar",
    "name": "Le Barberousse",
    "source": "cadastre-dgi-fr source : Direction Générale des Impôts - Cadastre ; mise à jour : 2010",
    "wheelchair": "no"
  }
},
{
  "type": "node",
  "id": 1008928714,
  "lat": 45.1927982,
  "lon": 5.7294183,
  "tags": {
    "amenity": "bar",
    "name": "La Boîte à sardine",
    "source": "survey"
  }
},
{
  "type": "node",
  "id": 1010648850,
  "lat": 45.1905345,
  "lon": 5.7115485,
  "tags": {
    "amenity": "restaurant",
    "name": "Le Resto d'Émile"
  }
},
{
  "type": "node",
  "id": 1013545095,
  "lat": 45.1935277,
  "lon": 5.7309032,
  "tags": {
    "amenity": "restaurant",
    "name": "Flam's Grenoble",
    "website": "http://www.flams.fr/restaurant_grenoble.html"
  }
},
{
  "type": "node",
  "id": 1013545105,
  "lat": 45.1922955,
  "lon": 5.7316413,
  "tags": {
    "amenity": "restaurant",
    "name": "Mémé Paulette"
  }
},
{
  "type": "node",
  "id": 1014442582,
  "lat": 45.1928318,
  "lon": 5.7284816,
  "tags": {
    "amenity": "restaurant",
    "name": "L'Autre Table",
    "old_name": "Le Bagatel Café",
    "source": "survey"
  }
},
{
  "type": "node",
  "id": 1014442587,
  "lat": 45.1911564,
  "lon": 5.7311317,
  "tags": {
    "amenity": "bar",
    "name": "Le Tord Boyau",
    "wheelchair": "no"
  }
},
{
  "type": "node",
  "id": 1014442588,
  "lat": 45.1925660,
  "lon": 5.7315514,
  "tags": {
    "amenity": "bar",
    "name": "Le 1900"
  }
},
{
  "type": "node",
  "id": 1014442589,
  "lat": 45.1939409,
  "lon": 5.7294621,
  "tags": {
    "amenity": "restaurant",
    "name": "K Fée des Jeux",
    "source": "survey"
  }
},
{
  "type": "node",
  "id": 1014442591,
  "lat": 45.1910908,
  "lon": 5.7322293,
  "tags": {
    "amenity": "bar",
    "name": "L'estanco"
  }
},
{
  "type": "node",
  "id": 1014442593,
  "lat": 45.1911004,
  "lon": 5.7313448,
  "tags": {
    "amenity": "bar",
    "name": "Basse Terre"
  }
},
{
  "type": "node",
  "id": 1014521636,
  "lat": 45.2066674,
  "lon": 5.4663374,
  "tags": {
    "amenity": "cafe",
    "name": "Le Drevenne"
  }
},
{
  "type": "node",
  "id": 1017858268,
  "lat": 45.1894616,
  "lon": 5.7135803,
  "tags": {
    "amenity": "restaurant",
    "cuisine": "regional",
    "name": "Le Star Café"
  }
},
{
  "type": "node",
  "id": 1019855956,
  "lat": 45.1927155,
  "lon": 5.7298929,
  "tags": {
    "amenity": "restaurant",
    "cuisine": "french",
    "name": "La Ferme à Dédé",
    "source": "survey"
  }
},
{
  "type": "node",
  "id": 1019855962,
  "lat": 45.1928527,
  "lon": 5.7306978,
  "tags": {
    "amenity": "restaurant",
    "cuisine": "regional",
    "name": "La Fondue",
    "source": "survey"
  }
},
{
  "type": "node",
  "id": 1019855966,
  "lat": 45.1920771,
  "lon": 5.7277867,
  "tags": {
    "amenity": "restaurant",
    "name": "Le Mix",
    "source": "survey"
  }
},
{
  "type": "node",
  "id": 1019855969,
  "lat": 45.1924441,
  "lon": 5.7280446,
  "tags": {
    "amenity": "restaurant",
    "name": "Le Saxo",
    "source": "survey"
  }
},
{
  "type": "node",
  "id": 1029745499,
  "lat": 45.1937057,
  "lon": 5.7294478,
  "tags": {
    "addr:postcode": "38000",
    "addr:street": "Place Bérulle",
    "amenity": "pub",
    "name": "O' Callaghan",
    "wheelchair": "no"
  }
},
{
  "type": "node",
  "id": 1041071835,
  "lat": 45.1628774,
  "lon": 5.7129745,
  "tags": {
    "amenity": "public_building",
    "name": "Direction départementale de la cohésion sociale de l’Isère"
  }
},
{
  "type": "node",
  "id": 1055204593,
  "lat": 45.1908042,
  "lon": 5.7334813,
  "tags": {
    "amenity": "restaurant",
    "name": "Jardins de Sainte-Cécile"
  }
},
{
  "type": "node",
  "id": 1055204595,
  "lat": 45.1920283,
  "lon": 5.7346123,
  "tags": {
    "amenity": "restaurant",
    "cuisine": "organic",
    "name": "Au Clair de Lune"
  }
},
{
  "type": "node",
  "id": 1055423436,
  "lat": 45.1924053,
  "lon": 5.7301574,
  "tags": {
    "amenity": "pub",
    "brewery": "tripel_karmeliet;kwak",
    "internet_access": "no",
    "name": "The Korner Pub",
    "source": "survey"
  }
},
{
  "type": "node",
  "id": 1055432829,
  "lat": 45.1769735,
  "lon": 5.7132133,
  "tags": {
    "amenity": "bar",
    "name": "Aux Zélées"
  }
},
{
  "type": "node",
  "id": 1084478025,
  "lat": 45.1564053,
  "lon": 5.7292303,
  "tags": {
    "amenity": "public_building",
    "name": "Maison de l'enfant"
  }
},
{
  "type": "node",
  "id": 1092372502,
  "lat": 45.0902044,
  "lon": 6.0644604,
  "tags": {
    "amenity": "pub",
    "name": "Pacific Bar"
  }
},
{
  "type": "node",
  "id": 1092372526,
  "lat": 45.0902307,
  "lon": 6.0662932,
  "tags": {
    "amenity": "pub",
    "name": "Underground Pub"
  }
},
{
  "type": "node",
  "id": 1092372604,
  "lat": 45.0901887,
  "lon": 6.0642904,
  "tags": {
    "amenity": "restaurant",
    "cuisine": "regional",
    "name": "Le Genepi",
    "phone": "+33 (0) 04 76 80 36 22"
  }
},
{
  "type": "node",
  "id": 1092372707,
  "lat": 45.0900821,
  "lon": 6.0644766,
  "tags": {
    "amenity": "restaurant",
    "name": "Au Puits des Saveurs",
    "phone": "Tel. +33 (0) 04 76 80 65 65"
  }
},
{
  "type": "node",
  "id": 1092393067,
  "lat": 45.0911240,
  "lon": 6.0676977,
  "tags": {
    "amenity": "pub",
    "name": "Pub free ride"
  }
},
{
  "type": "node",
  "id": 1092476482,
  "lat": 45.1763491,
  "lon": 5.7248146,
  "tags": {
    "addr:housenumber": "47",
    "amenity": "bar",
    "name": "Le Relax",
    "source": "cadastre-dgi-fr source : Direction Générale des Impôts - Cadastre. Mise à jour : 2011"
  }
},
{
  "type": "node",
  "id": 1108147595,
  "lat": 45.3248405,
  "lon": 6.0473935,
  "tags": {
    "amenity": "cafe",
    "name": "Cafétéria du foyer"
  }
},
{
  "type": "node",
  "id": 1108249895,
  "lat": 45.1895531,
  "lon": 5.7785903,
  "tags": {
    "amenity": "restaurant",
    "cuisine": "steak_house",
    "name": "Hippopotamus"
  }
},
{
  "type": "node",
  "id": 1109105473,
  "lat": 45.1846042,
  "lon": 5.7794636,
  "tags": {
    "addr:housenumber": "16",
    "addr:postcode": "38610",
    "addr:street": "Rue de l'Étang",
    "amenity": "restaurant",
    "cuisine": "italian",
    "name": "Arte Bianco"
  }
},
{
  "type": "node",
  "id": 1109106667,
  "lat": 45.1848235,
  "lon": 5.7793448,
  "tags": {
    "addr:city": "Gières",
    "addr:country": "FR",
    "addr:housenumber": "16",
    "addr:postcode": "38610",
    "addr:street": "Rue de l'Étang",
    "amenity": "restaurant",
    "cuisine": "french",
    "email": "midicroc@wanadoo.fr",
    "name": "Couleur Cafèt",
    "phone": "+33476510038"
  }
},
{
  "type": "node",
  "id": 1110580425,
  "lat": 45.1311252,
  "lon": 5.6949784,
  "tags": {
    "amenity": "public_building",
    "name": "L'Escale",
    "old_name": "MJC Le Delta"
  }
},
{
  "type": "node",
  "id": 1110603975,
  "lat": 45.1421860,
  "lon": 5.7180936,
  "tags": {
    "amenity": "public_building",
    "name": "Maison des associations"
  }
},
{
  "type": "node",
  "id": 1110868538,
  "lat": 45.1864531,
  "lon": 5.7739430,
  "tags": {
    "amenity": "restaurant",
    "name": "Gélin Traiteur"
  }
},
{
  "type": "node",
  "id": 1116093382,
  "lat": 45.1478626,
  "lon": 5.7130996,
  "tags": {
    "amenity": "restaurant",
    "name": "Instants Partagés"
  }
},
{
  "type": "node",
  "id": 1116093384,
  "lat": 45.1476160,
  "lon": 5.7133367,
  "tags": {
    "amenity": "fast_food",
    "name": "Le Sept sur 7"
  }
},
{
  "type": "node",
  "id": 1116106643,
  "lat": 45.1578386,
  "lon": 6.0770769,
  "tags": {
    "amenity": "restaurant",
    "beverage": "yes",
    "name": "Hôtel du Rissiou",
    "source": "cadastre-dgi-fr source : Direction G�n�rale des Imp�ts - Cadastre ; mise � jour : 2011",
    "tourism": "hotel"
  }
},
{
  "type": "node",
  "id": 1116106684,
  "lat": 45.1576297,
  "lon": 6.0785647,
  "tags": {
    "amenity": "restaurant",
    "capacity": "30",
    "cuisine": "regional",
    "name": "La Table de la Fare",
    "phone": "+33476808240",
    "wifi": "yes"
  }
},
{
  "type": "node",
  "id": 1116106709,
  "lat": 45.1577265,
  "lon": 6.0780863,
  "tags": {
    "amenity": "restaurant",
    "beverage": "yes",
    "name": "L'Étendard",
    "source": "cadastre-dgi-fr source : Direction G�n�rale des Imp�ts - Cadastre ; mise � jour : 2011",
    "stars": "2",
    "tourism": "hotel"
  }
},
{
  "type": "node",
  "id": 1116106781,
  "lat": 45.1576979,
  "lon": 6.0767018,
  "tags": {
    "amenity": "restaurant",
    "beverage": "yes",
    "name": "Le Montfrais",
    "source": "cadastre-dgi-fr source : Direction G�n�rale des Imp�ts - Cadastre ; mise � jour : 2011"
  }
},
{
  "type": "node",
  "id": 1118688931,
  "lat": 45.2222416,
  "lon": 5.8122526,
  "tags": {
    "addr:city": "Montbonnot Saint Martin",
    "addr:country": "FR",
    "addr:housenumber": "1323",
    "addr:postcode": "38330",
    "addr:street": "Avenue de l'Europe",
    "amenity": "restaurant",
    "email": "com-wok@live.fr",
    "name": "CO'M Wok",
    "phone": "+33476018679"
  }
},
{
  "type": "node",
  "id": 1118694747,
  "lat": 45.2142939,
  "lon": 5.8064854,
  "tags": {
    "amenity": "restaurant",
    "name": "Le garage"
  }
},
{
  "type": "node",
  "id": 1119252878,
  "lat": 45.1922937,
  "lon": 5.6974354,
  "tags": {
    "amenity": "bar",
    "name": "Le Saveuil"
  }
},
{
  "type": "node",
  "id": 1119252890,
  "lat": 45.1890288,
  "lon": 5.6973741,
  "tags": {
    "amenity": "bar",
    "name": "Le Tram"
  }
},
{
  "type": "node",
  "id": 1126234875,
  "lat": 45.1546787,
  "lon": 5.3148221,
  "tags": {
    "amenity": "restaurant"
  }
},
{
  "type": "node",
  "id": 1129614534,
  "lat": 45.1907910,
  "lon": 5.7313680,
  "tags": {
    "amenity": "bar",
    "brewery": "pale ryder;punk ipa",
    "internet_access": "no",
    "name": "À l'Ouest",
    "source": "survey"
  }
},
{
  "type": "node",
  "id": 1139415940,
  "lat": 45.1884295,
  "lon": 5.7140837,
  "tags": {
    "amenity": "bar",
    "name": "Bar du Modern"
  }
},
{
  "type": "node",
  "id": 1139437221,
  "lat": 45.1899278,
  "lon": 5.7160374,
  "tags": {
    "amenity": "restaurant",
    "name": "La Bon'Heure",
    "source": "survey"
  }
},
{
  "type": "node",
  "id": 1139547188,
  "lat": 45.1444647,
  "lon": 5.7106696,
  "tags": {
    "amenity": "bar",
    "name": "La Boule d'Or"
  }
},
{
  "type": "node",
  "id": 1139561481,
  "lat": 45.1487169,
  "lon": 5.7175014,
  "tags": {
    "amenity": "cafe",
    "name": "Les Gourmandises d'Agnès"
  }
},
{
  "type": "node",
  "id": 1139561493,
  "lat": 45.1488730,
  "lon": 5.7175491,
  "tags": {
    "amenity": "restaurant",
    "cuisine": "asian",
    "name": "Azian"
  }
},
{
  "type": "node",
  "id": 1139565048,
  "lat": 45.1483988,
  "lon": 5.7190882,
  "tags": {
    "amenity": "restaurant",
    "cuisine": "indian",
    "name": "Le Quart d'Heure Indien",
    "takeaway": "yes"
  }
},
{
  "type": "node",
  "id": 1141160838,
  "lat": 45.1884650,
  "lon": 5.7134926,
  "tags": {
    "amenity": "fast_food",
    "name": "Sandwicherie du Palais"
  }
},
{
  "type": "node",
  "id": 1141171438,
  "lat": 45.1853827,
  "lon": 5.7167051,
  "tags": {
    "amenity": "cafe",
    "name": "Le 17"
  }
},
{
  "type": "node",
  "id": 1142119319,
  "lat": 45.1812925,
  "lon": 5.7314701,
  "tags": {
    "addr:city": "Grenoble",
    "addr:housenumber": "16",
    "addr:postcode": "38100",
    "addr:street": "Avenue Général Champon",
    "amenity": "restaurant",
    "cuisine": "pizza",
    "name": "4 Gusti",
    "opening_hours": "Mo-Fr 10:00-14:00,18:00-22:00, Sa-Su 18:00-22:30",
    "source": "cadastre-dgi-fr source : Direction Générale des Impôts - Cadastre. Mise à jour : 2011"
  }
},
{
  "type": "node",
  "id": 1142119322,
  "lat": 45.1812748,
  "lon": 5.7297027,
  "tags": {
    "amenity": "restaurant",
    "name": "Le Saint-Nicolas",
    "phone": "+33 4 76871028",
    "source": "cadastre-dgi-fr source : Direction Générale des Impôts - Cadastre. Mise à jour : 2011"
  }
},
{
  "type": "node",
  "id": 1142119326,
  "lat": 45.1821099,
  "lon": 5.7308439,
  "tags": {
    "amenity": "cafe",
    "name": "Le Chamrousse",
    "source": "survey"
  }
},
{
  "type": "node",
  "id": 1142407112,
  "lat": 45.1490708,
  "lon": 5.7184711,
  "tags": {
    "amenity": "fast_food",
    "diet:halal": "yes",
    "name": "Mevlana"
  }
},
{
  "type": "node",
  "id": 1142448014,
  "lat": 45.1884550,
  "lon": 5.7136848,
  "tags": {
    "amenity": "fast_food",
    "cuisine": "mexican",
    "name": "Speed Taco's"
  }
},
{
  "type": "node",
  "id": 1142448019,
  "lat": 45.1888688,
  "lon": 5.7066499,
  "tags": {
    "amenity": "fast_food",
    "cuisine": "kebab",
    "name": "Station Kebab"
  }
},
{
  "type": "node",
  "id": 1142448024,
  "lat": 45.1884613,
  "lon": 5.7135798,
  "tags": {
    "amenity": "restaurant",
    "name": "Le Mektoub"
  }
},
{
  "type": "node",
  "id": 1145390048,
  "lat": 45.1483214,
  "lon": 5.7195582,
  "tags": {
    "amenity": "restaurant",
    "name": "Le Palladio",
    "wheelchair": "yes"
  }
},
{
  "type": "node",
  "id": 1145390051,
  "lat": 45.1482867,
  "lon": 5.7198725,
  "tags": {
    "amenity": "restaurant",
    "cuisine": "pizza",
    "name": "Sapori é Gusto"
  }
},
{
  "type": "node",
  "id": 1145395210,
  "lat": 45.1466514,
  "lon": 5.7169173,
  "tags": {
    "amenity": "fast_food",
    "name": "Dilan"
  }
},
{
  "type": "node",
  "id": 1145399197,
  "lat": 45.1455961,
  "lon": 5.7166239,
  "tags": {
    "amenity": "fast_food",
    "name": "Le Tacos de Lyon"
  }
},
{
  "type": "node",
  "id": 1145406043,
  "lat": 45.1860207,
  "lon": 5.7094374,
  "tags": {
    "amenity": "restaurant",
    "cuisine": "african",
    "name": "Le Taxi Brousse"
  }
},
{
  "type": "node",
  "id": 1145407563,
  "lat": 45.1888146,
  "lon": 5.7077269,
  "tags": {
    "amenity": "cafe",
    "name": "La Frise"
  }
},
{
  "type": "node",
  "id": 1149542698,
  "lat": 45.1925196,
  "lon": 5.6978488,
  "tags": {
    "amenity": "restaurant",
    "cuisine": "portuguese",
    "name": "Aux Saveurs du Portugal"
  }
},
{
  "type": "node",
  "id": 1149568365,
  "lat": 45.1884340,
  "lon": 5.7140105,
  "tags": {
    "amenity": "fast_food",
    "cuisine": "sandwich",
    "name": "Le Sphinx"
  }
},
{
  "type": "node",
  "id": 1149568367,
  "lat": 45.1884361,
  "lon": 5.7139490,
  "tags": {
    "amenity": "cafe",
    "name": "Salon de Thé Fleur du Jour"
  }
},
{
  "type": "node",
  "id": 1151490647,
  "lat": 45.1479629,
  "lon": 5.7202528,
  "tags": {
    "amenity": "restaurant",
    "name": "Carré Latin",
    "wheelchair": "yes"
  }
},
{
  "type": "node",
  "id": 1154514487,
  "lat": 45.1918696,
  "lon": 5.7054420,
  "tags": {
    "amenity": "bar",
    "name": "Le Parillys"
  }
},
{
  "type": "node",
  "id": 1154514491,
  "lat": 45.1916506,
  "lon": 5.7055374,
  "tags": {
    "amenity": "bar",
    "name": "La Bonne Bouteille"
  }
},
{
  "type": "node",
  "id": 1154534941,
  "lat": 45.1890621,
  "lon": 5.6954141,
  "tags": {
    "amenity": "bar",
    "name": "Le Petit Fontainois"
  }
},
{
  "type": "node",
  "id": 1154534945,
  "lat": 45.1890589,
  "lon": 5.6963404,
  "tags": {
    "amenity": "restaurant",
    "cuisine": "pizza",
    "name": "Top Pizza",
    "opening_hours": "Mo-Su 18:00-23:00",
    "phone": "04 76 27 07 49"
  }
},
{
  "type": "node",
  "id": 1156788832,
  "lat": 45.1413064,
  "lon": 5.8285136,
  "tags": {
    "amenity": "restaurant",
    "name": "La Marine"
  }
},
{
  "type": "node",
  "id": 1156816808,
  "lat": 45.1419357,
  "lon": 5.8287689,
  "tags": {
    "amenity": "restaurant",
    "name": "Pizzeria Le Carillon"
  }
},
{
  "type": "node",
  "id": 1156821125,
  "lat": 45.1425991,
  "lon": 5.8298543,
  "tags": {
    "amenity": "restaurant",
    "name": "Les Terrasses"
  }
},
{
  "type": "node",
  "id": 1156834130,
  "lat": 45.1424284,
  "lon": 5.8289760,
  "tags": {
    "amenity": "bar",
    "name": "La Fondue"
  }
},
{
  "type": "node",
  "id": 1156834532,
  "lat": 45.1423451,
  "lon": 5.8289379,
  "tags": {
    "amenity": "restaurant",
    "name": "La Fondue"
  }
},
{
  "type": "node",
  "id": 1159256046,
  "lat": 45.1265559,
  "lon": 5.5274711,
  "tags": {
    "amenity": "restaurant",
    "name": "Le Grizzly"
  }
},
{
  "type": "node",
  "id": 1159256120,
  "lat": 45.1268356,
  "lon": 5.5275587,
  "tags": {
    "amenity": "bar",
    "name": "Bar des Colonies"
  }
},
{
  "type": "node",
  "id": 1159256181,
  "lat": 45.1279920,
  "lon": 5.5273818,
  "tags": {
    "amenity": "restaurant",
    "name": "Le Sabot de Vénus",
    "phone": "+33 4 76952002"
  }
},
{
  "type": "node",
  "id": 1159256185,
  "lat": 45.1267211,
  "lon": 5.5269942,
  "tags": {
    "amenity": "bar",
    "name": "Bar La Fontaine de l'Enfer"
  }
},
{
  "type": "node",
  "id": 1159256210,
  "lat": 45.1290384,
  "lon": 5.5279762,
  "tags": {
    "amenity": "restaurant",
    "cuisine": "pizza",
    "name": "L'Étale"
  }
},
{
  "type": "node",
  "id": 1159256295,
  "lat": 45.1279959,
  "lon": 5.5275217,
  "tags": {
    "amenity": "bar",
    "name": "Le Sabot de Vénus",
    "phone": "+33 4 76952002"
  }
},
{
  "type": "node",
  "id": 1159256307,
  "lat": 45.1279634,
  "lon": 5.5220482,
  "tags": {
    "amenity": "bar",
    "name": "L'Escapade"
  }
},
{
  "type": "node",
  "id": 1160558942,
  "lat": 45.2457874,
  "lon": 5.8304458,
  "tags": {
    "amenity": "bar",
    "name": "Bar du Square"
  }
},
{
  "type": "node",
  "id": 1160560451,
  "lat": 45.2457383,
  "lon": 5.8303975,
  "tags": {
    "amenity": "restaurant",
    "name": "Bar du Square"
  }
},
{
  "type": "node",
  "id": 1160561079,
  "lat": 45.2432958,
  "lon": 5.8278045,
  "tags": {
    "amenity": "restaurant",
    "name": "L'ismérusien"
  }
},
{
  "type": "node",
  "id": 1160561561,
  "lat": 45.2484841,
  "lon": 5.8261328,
  "tags": {
    "amenity": "bar"
  }
},
{
  "type": "node",
  "id": 1163341172,
  "lat": 45.1869267,
  "lon": 5.7059675,
  "tags": {
    "amenity": "cafe",
    "name": "Melrose Café",
    "source": "survey"
  }
},
{
  "type": "node",
  "id": 1163839983,
  "lat": 45.1920919,
  "lon": 5.6972927,
  "tags": {
    "amenity": "fast_food",
    "cuisine": "turkish",
    "name": "Yavuz"
  }
},
{
  "type": "node",
  "id": 1165040050,
  "lat": 45.1476866,
  "lon": 5.7183426,
  "tags": {
    "amenity": "fast_food",
    "cuisine": "sandwich",
    "name": "Subway",
    "wheelchair": "yes"
  }
},
{
  "type": "node",
  "id": 1166456913,
  "lat": 45.1513589,
  "lon": 5.7070033,
  "tags": {
    "amenity": "bar",
    "name": "Le Vincennes"
  }
},
{
  "type": "node",
  "id": 1166456914,
  "lat": 45.1514227,
  "lon": 5.7070255,
  "tags": {
    "amenity": "bar",
    "name": "Brasserie du Cours"
  }
},
{
  "type": "node",
  "id": 1166456916,
  "lat": 45.1512840,
  "lon": 5.7069874,
  "tags": {
    "amenity": "fast_food",
    "name": "Turquoise"
  }
},
{
  "type": "node",
  "id": 1166469512,
  "lat": 45.1779622,
  "lon": 5.7160102,
  "tags": {
    "amenity": "bar",
    "name": "Le Bayard"
  }
},
{
  "type": "node",
  "id": 1166474020,
  "lat": 45.1887211,
  "lon": 5.7060111,
  "tags": {
    "amenity": "restaurant",
    "name": "Café des Touristes"
  }
},
{
  "type": "node",
  "id": 1172047748,
  "lat": 45.1441751,
  "lon": 5.7146180,
  "tags": {
    "amenity": "restaurant",
    "name": "La Résistance"
  }
},
{
  "type": "node",
  "id": 1175690875,
  "lat": 45.0239063,
  "lon": 5.8620822,
  "tags": {
    "amenity": "restaurant",
    "beverage": "yes",
    "name": "L'Éterlou"
  }
},
{
  "type": "node",
  "id": 1177218868,
  "lat": 45.1911272,
  "lon": 5.7122343,
  "tags": {
    "amenity": "restaurant",
    "name": "Planetalis"
  }
},
{
  "type": "node",
  "id": 1201815749,
  "lat": 45.1429873,
  "lon": 5.7277293,
  "tags": {
    "amenity": "restaurant",
    "cuisine": "regional",
    "name": "Le Relais des Chasseurs",
    "source": "Photos géolocalisées"
  }
},
{
  "type": "node",
  "id": 1203208773,
  "lat": 44.9861286,
  "lon": 5.7485453,
  "tags": {
    "amenity": "restaurant",
    "cuisine": "french",
    "source": "cadastre-dgi-fr source : Direction Générale des Impôts - Cadastre ; mise à jour :2011"
  }
},
{
  "type": "node",
  "id": 1214463207,
  "lat": 45.1269718,
  "lon": 5.8166839,
  "tags": {
    "addr:housenumber": "11",
    "addr:postcode": "38410",
    "addr:street": "Chemin Guichards",
    "amenity": "cafe",
    "cuisine": "french",
    "name": "Chez Marie",
    "source": "cadastre-dgi-fr source : Direction Générale des Impôts - Cadastre ; mise à jour :2011"
  }
},
{
  "type": "node",
  "id": 1219343618,
  "lat": 45.2725000,
  "lon": 6.0559626,
  "tags": {
    "amenity": "restaurant",
    "beverage": "yes",
    "name": "Le Chamois"
  }
},
{
  "type": "node",
  "id": 1234895265,
  "lat": 45.1924809,
  "lon": 5.7299607,
  "tags": {
    "addr:housenumber": "1",
    "addr:postcode": "38000",
    "addr:street": "Rue Lafayette",
    "amenity": "restaurant",
    "cuisine": "french",
    "name": "Pain et Cie",
    "old_name": "Le Pain Quotidien",
    "wheelchair": "yes"
  }
},
{
  "type": "node",
  "id": 1252200472,
  "lat": 45.2164514,
  "lon": 5.8624566,
  "tags": {
    "amenity": "restaurant",
    "name": "La Bascule"
  }
},
{
  "type": "node",
  "id": 1252206176,
  "lat": 45.2164399,
  "lon": 5.8626634,
  "tags": {
    "amenity": "restaurant",
    "name": "Le Globe Trotter"
  }
},
{
  "type": "node",
  "id": 1261910022,
  "lat": 45.2118404,
  "lon": 5.7863579,
  "tags": {
    "amenity": "restaurant"
  }
},
{
  "type": "node",
  "id": 1261938987,
  "lat": 45.2115504,
  "lon": 5.7871975,
  "tags": {
    "amenity": "restaurant",
    "name": "LRP Chantignoles"
  }
},
{
  "type": "node",
  "id": 1303832313,
  "lat": 45.0484357,
  "lon": 5.6855874,
  "tags": {
    "amenity": "restaurant",
    "beverage": "yes",
    "name": "Bar de la Gare"
  }
},
{
  "type": "node",
  "id": 1311014347,
  "lat": 45.1697648,
  "lon": 5.7633497,
  "tags": {
    "amenity": "bar"
  }
},
{
  "type": "node",
  "id": 1313238238,
  "lat": 45.2028348,
  "lon": 5.7637481,
  "tags": {
    "amenity": "bar"
  }
},
{
  "type": "node",
  "id": 1313238240,
  "lat": 45.2031997,
  "lon": 5.7637565,
  "tags": {
    "amenity": "restaurant"
  }
},
{
  "type": "node",
  "id": 1317190119,
  "lat": 45.2509772,
  "lon": 5.9710312,
  "tags": {
    "addr:postcode": "38190",
    "addr:street": "Hameau de Prabert",
    "amenity": "restaurant",
    "cuisine": "regional",
    "name": "Crêperie Les Mirabelles",
    "source": "Local knowledge"
  }
},
{
  "type": "node",
  "id": 1317198609,
  "lat": 45.2575330,
  "lon": 5.9699691,
  "tags": {
    "addr:postcode": "38190",
    "addr:street": "Les Adrets",
    "amenity": "restaurant",
    "cuisine": "regional",
    "name": "La Grange du Bois des Loups",
    "website": "http://www.lagrangeduboisdesloups.fr/"
  }
},
{
  "type": "node",
  "id": 1317208476,
  "lat": 45.2397068,
  "lon": 5.9521056,
  "tags": {
    "addr:postcode": "38190",
    "addr:street": "Le Col des Mouilles",
    "amenity": "restaurant",
    "cuisine": "regional",
    "name": "La Taverne de l'Écureuil",
    "website": "http://www.latavernedelecureuil.fr/"
  }
},
{
  "type": "node",
  "id": 1321712265,
  "lat": 45.2092825,
  "lon": 5.7648742,
  "tags": {
    "amenity": "cafe"
  }
},
{
  "type": "node",
  "id": 1324802814,
  "lat": 45.1859531,
  "lon": 5.7330477,
  "tags": {
    "addr:housenumber": "28",
    "addr:postcode": "38000",
    "addr:street": "Place Paul Vallier",
    "amenity": "fast_food",
    "cuisine": "pizza",
    "name": "Domino's Pizza",
    "website": "http://www.dominos.fr/"
  }
},
{
  "type": "node",
  "id": 1340158814,
  "lat": 44.7943960,
  "lon": 5.6590472,
  "tags": {
    "amenity": "restaurant",
    "beverage": "yes",
    "name": "L'Aller Retour",
    "source": "cadastre-dgi-fr source : Direction G�n�rale des Imp�ts - Cadastre ; mise � jour : 2011"
  }
},
{
  "type": "node",
  "id": 1341701529,
  "lat": 45.2546967,
  "lon": 5.7792823,
  "tags": {
    "amenity": "restaurant",
    "name": "La Grange",
    "website": "http://www.lagrange-lesappey.com/"
  }
},
{
  "type": "node",
  "id": 1342033026,
  "lat": 45.1888239,
  "lon": 5.7777628,
  "tags": {
    "amenity": "fast_food",
    "name": "Gérald Pizza"
  }
},
{
  "type": "node",
  "id": 1351332616,
  "lat": 45.1898446,
  "lon": 5.7127810,
  "tags": {
    "amenity": "public_building",
    "name": "Antenne Maririe Secteur 1"
  }
},
{
  "type": "node",
  "id": 1356824851,
  "lat": 45.3173215,
  "lon": 5.1696218,
  "tags": {
    "amenity": "bar"
  }
},
{
  "type": "node",
  "id": 1363805522,
  "lat": 45.0830748,
  "lon": 5.7342839,
  "tags": {
    "amenity": "restaurant",
    "name": "Le Petit Port"
  }
},
{
  "type": "node",
  "id": 1363863662,
  "lat": 45.2063221,
  "lon": 5.6632764,
  "tags": {
    "amenity": "restaurant",
    "cuisine": "pizza",
    "name": "Bellagio"
  }
},
{
  "type": "node",
  "id": 1365159210,
  "lat": 45.0903110,
  "lon": 6.0685559,
  "tags": {
    "amenity": "restaurant",
    "cuisine": "french",
    "name": "Le Printemps de Juliette",
    "source": "cadastre-dgi-fr source : Direction Générale des Impôts - Cadastre. Mise à jour : 2011"
  }
},
{
  "type": "node",
  "id": 1371398772,
  "lat": 45.1904950,
  "lon": 5.7280806,
  "tags": {
    "addr:housenumber": "3",
    "addr:postcode": "38000",
    "addr:street": "rue Philis de la charce",
    "amenity": "fast_food",
    "cuisine": "italian",
    "name": "PastaVia",
    "phone": "04 76 41 86 79",
    "source": "survey"
  }
},
{
  "type": "node",
  "id": 1376040850,
  "lat": 45.1734741,
  "lon": 5.7187515,
  "tags": {
    "amenity": "cafe",
    "name": "Brasserie du Marché"
  }
},
{
  "type": "node",
  "id": 1376043752,
  "lat": 45.1826058,
  "lon": 5.7169130,
  "tags": {
    "amenity": "cafe",
    "name": "Le F'axo Café"
  }
},
{
  "type": "node",
  "id": 1376051476,
  "lat": 45.1855887,
  "lon": 5.7142725,
  "tags": {
    "addr:city": "Grenoble",
    "addr:housenumber": "27",
    "addr:postcode": "38000",
    "addr:street": "Rue Jean Prevost",
    "amenity": "restaurant",
    "cuisine": "regional",
    "name": "Le 69"
  }
},
{
  "type": "node",
  "id": 1376051477,
  "lat": 45.1836325,
  "lon": 5.7163477,
  "tags": {
    "amenity": "restaurant",
    "cuisine": "french",
    "name": "L'Oreille d'Âne",
    "phone": "04 38 12 08 41"
  }
},
{
  "type": "node",
  "id": 1376051478,
  "lat": 45.1857141,
  "lon": 5.7142725,
  "tags": {
    "amenity": "restaurant",
    "name": "De L'Orient à l'Elysée",
    "phone": "+33 4 38495862",
    "wheelchair": "yes"
  }
},
{
  "type": "node",
  "id": 1376736777,
  "lat": 45.0912216,
  "lon": 5.3823566,
  "tags": {
    "amenity": "restaurant",
    "cuisine": "french",
    "name": "Auberge de Presles",
    "phone": "04 76 36 04 75",
    "website": "http://www.auberge-presles.com"
  }
},
{
  "type": "node",
  "id": 1381683141,
  "lat": 45.1946061,
  "lon": 5.7189484,
  "tags": {
    "amenity": "restaurant",
    "cuisine": "mexican",
    "fax": "+33 4 76470440",
    "name": "El Tex Mex",
    "phone": "+33 4 76474971",
    "website": "http://www.tex-mex-grenoble.com/"
  }
},
{
  "type": "node",
  "id": 1381683142,
  "lat": 45.1944439,
  "lon": 5.7188060,
  "tags": {
    "amenity": "restaurant",
    "name": "Palladio"
  }
},
{
  "type": "node",
  "id": 1400896462,
  "lat": 44.9326767,
  "lon": 6.2931427,
  "tags": {
    "amenity": "restaurant"
  }
},
{
  "type": "node",
  "id": 1403086859,
  "lat": 45.1884496,
  "lon": 5.7296126,
  "tags": {
    "amenity": "cafe",
    "name": "Le Coup de Cœur",
    "source": "survey",
    "tobacco": "yes"
  }
},
{
  "type": "node",
  "id": 1407400537,
  "lat": 45.3339644,
  "lon": 5.6211894,
  "tags": {
    "addr:housename": "Le clos",
    "addr:postcode": "38500",
    "addr:street": "La buisse",
    "amenity": "fast_food",
    "cuisine": "pizza",
    "name": "La buisseria",
    "website": "http://labuisseria.blogspot.com/"
  }
},
{
  "type": "node",
  "id": 1407409670,
  "lat": 45.3341303,
  "lon": 5.6205939,
  "tags": {
    "addr:housename": "impasse des écoliers",
    "addr:postcode": "38500",
    "amenity": "restaurant",
    "cuisine": "regional",
    "name": "Le Valgo"
  }
},
{
  "type": "node",
  "id": 1409414481,
  "lat": 45.1518230,
  "lon": 5.7493080,
  "tags": {
    "amenity": "fast_food",
    "name": "Le 109"
  }
},
{
  "type": "node",
  "id": 1409893560,
  "lat": 45.1771590,
  "lon": 5.7320780,
  "tags": {
    "amenity": "fast_food",
    "name": "Orient Express"
  }
},
{
  "type": "node",
  "id": 1409895246,
  "lat": 45.1795730,
  "lon": 5.7320490,
  "tags": {
    "amenity": "fast_food",
    "name": "Star Kebab"
  }
},
{
  "type": "node",
  "id": 1414323201,
  "lat": 45.0802362,
  "lon": 5.7354814,
  "tags": {
    "addr:city": "Champ-sur-Drac",
    "addr:postcode": "38560",
    "addr:street": "Rue de Verdun",
    "amenity": "restaurant",
    "cuisine": "pizza",
    "name": "Le Coup d'la Fuite"
  }
},
{
  "type": "node",
  "id": 1431286085,
  "lat": 45.1526880,
  "lon": 5.3203827,
  "tags": {
    "amenity": "restaurant",
    "cuisine": "french",
    "name": "Saint-Marcell-in"
  }
},
{
  "type": "node",
  "id": 1431286097,
  "lat": 45.1524535,
  "lon": 5.3205704,
  "tags": {
    "amenity": "restaurant",
    "cuisine": "pizza",
    "name": "Le Rustic"
  }
},
{
  "type": "node",
  "id": 1431286100,
  "lat": 45.1537977,
  "lon": 5.3228989,
  "tags": {
    "amenity": "restaurant",
    "cuisine": "pizza",
    "name": "Le Grillon"
  }
},
{
  "type": "node",
  "id": 1433231870,
  "lat": 45.2190825,
  "lon": 5.8145407,
  "tags": {
    "amenity": "restaurant",
    "name": "La P'tite Pause"
  }
},
{
  "type": "node",
  "id": 1448485779,
  "lat": 45.3069984,
  "lon": 5.8807293,
  "tags": {
    "amenity": "restaurant",
    "name": "Le Gandinou"
  }
},
{
  "type": "node",
  "id": 1452166108,
  "lat": 44.8689372,
  "lon": 6.0902557,
  "tags": {
    "amenity": "restaurant",
    "name": "Bar des Écrins",
    "website": "http://www.bardesecrins.net/"
  }
},
{
  "type": "node",
  "id": 1452560660,
  "lat": 45.2718006,
  "lon": 5.6182883,
  "tags": {
    "amenity": "restaurant",
    "cuisine": "french",
    "name": "Restaurant de l'Isère",
    "source": "repérage lieux + cadastre-dgi-fr source : Direction Générale des Impôts - Cadastre ; mise à jour :2011"
  }
},
{
  "type": "node",
  "id": 1467599383,
  "lat": 45.0718012,
  "lon": 6.1713845,
  "tags": {
    "amenity": "restaurant",
    "beverage": "yes",
    "name": "Le Sarret",
    "source": "cadastre-dgi-fr source : Direction G�n�rale des Imp�ts - Cadastre ; mise � jour : 2011",
    "tourism": "hotel"
  }
},
{
  "type": "node",
  "id": 1467612605,
  "lat": 45.0717548,
  "lon": 6.1708634,
  "tags": {
    "amenity": "cafe",
    "name": "Café Bar des Touristes",
    "source": "cadastre-dgi-fr source : Direction G�n�rale des Imp�ts - Cadastre ; mise � jour : 2011"
  }
},
{
  "type": "node",
  "id": 1467636476,
  "lat": 45.0715124,
  "lon": 6.1693099,
  "tags": {
    "amenity": "restaurant",
    "beverage": "yes",
    "name": "Hôtel Alpin",
    "source": "cadastre-dgi-fr source : Direction G�n�rale des Imp�ts - Cadastre ; mise � jour : 2011",
    "tourism": "hotel"
  }
},
{
  "type": "node",
  "id": 1518086896,
  "lat": 45.3439369,
  "lon": 5.9785560,
  "tags": {
    "amenity": "bar"
  }
},
{
  "type": "node",
  "id": 1518112246,
  "lat": 45.3320101,
  "lon": 5.9756596,
  "tags": {
    "amenity": "restaurant",
    "cuisine": "french",
    "name": "La Vieille Fontaine"
  }
},
{
  "type": "node",
  "id": 1518112276,
  "lat": 45.3416699,
  "lon": 5.9747883,
  "tags": {
    "amenity": "restaurant"
  }
},
{
  "type": "node",
  "id": 1548801023,
  "lat": 45.1697872,
  "lon": 5.6300082,
  "tags": {
    "amenity": "restaurant",
    "name": "Les 3 Marmottes"
  }
},
{
  "type": "node",
  "id": 1584032692,
  "lat": 45.1895267,
  "lon": 5.7164421,
  "tags": {
    "amenity": "restaurant",
    "cuisine": "chinese",
    "name": "Chez Lili",
    "source": "survey"
  }
},
{
  "type": "node",
  "id": 1596540716,
  "lat": 45.2216083,
  "lon": 5.6879773,
  "tags": {
    "amenity": "restaurant",
    "name": "creperie"
  }
},
{
  "type": "node",
  "id": 1627061720,
  "lat": 45.1888648,
  "lon": 5.7275384,
  "tags": {
    "amenity": "cafe",
    "name": "Jardin du Thé",
    "source": "survey"
  }
},
{
  "type": "node",
  "id": 1630492477,
  "lat": 45.1971974,
  "lon": 5.7517372,
  "tags": {
    "amenity": "restaurant",
    "name": "Restaurant Les 3 Dauphins"
  }
},
{
  "type": "node",
  "id": 1636886081,
  "lat": 45.1815257,
  "lon": 5.7165442,
  "tags": {
    "amenity": "bar",
    "name": "L'Albatros"
  }
},
{
  "type": "node",
  "id": 1637419069,
  "lat": 45.1840130,
  "lon": 5.7158778,
  "tags": {
    "amenity": "restaurant",
    "name": "Casa de España",
    "phone": "04 76 21 06 29"
  }
},
{
  "type": "node",
  "id": 1655907085,
  "lat": 45.2960388,
  "lon": 5.6293397,
  "tags": {
    "amenity": "restaurant",
    "cuisine": "burger",
    "name": "McDonald's"
  }
},
{
  "type": "node",
  "id": 1670892127,
  "lat": 45.3653441,
  "lon": 5.6209175,
  "tags": {
    "amenity": "restaurant",
    "cuisine": "regional",
    "name": "Au feu de bois"
  }
},
{
  "type": "node",
  "id": 1675031395,
  "lat": 45.1200746,
  "lon": 5.6726245,
  "tags": {
    "amenity": "pub",
    "name": "Bar PMU"
  }
},
{
  "type": "node",
  "id": 1675031420,
  "lat": 45.1198476,
  "lon": 5.6722672,
  "tags": {
    "amenity": "pub",
    "name": "Le Saint-Ange"
  }
},
{
  "type": "node",
  "id": 1675842873,
  "lat": 45.1912980,
  "lon": 5.7262623,
  "tags": {
    "addr:housename": "Auberge Napoleon",
    "addr:housenumber": "7",
    "addr:postcode": "38000",
    "addr:street": "rue Montorge",
    "alt_name": "restaurant Napoleon",
    "amenity": "restaurant",
    "cuisine": "regional",
    "int_name": "Auberge Napoléon",
    "name": "Auberge Napoleon",
    "old_name": "hotel des trois Dauphins",
    "source": "survey",
    "website": "http://www.auberge-napoleon.fr"
  }
},
{
  "type": "node",
  "id": 1676835925,
  "lat": 44.9360826,
  "lon": 5.9737588,
  "tags": {
    "addr:postcode": "38740",
    "addr:street": "Route du col d'Ornon",
    "amenity": "cafe",
    "cuisine": "french",
    "name": "Snack-Bar \"Le Village\"",
    "wifi": "no"
  }
},
{
  "type": "node",
  "id": 1678675692,
  "lat": 45.0623933,
  "lon": 5.6599887,
  "tags": {
    "amenity": "restaurant",
    "cuisine": "french",
    "name": "Ferme-Auberge du Rocher Saint-Loup",
    "website": "rocher-saint-loup.com"
  }
},
{
  "type": "node",
  "id": 1680334663,
  "lat": 45.1923128,
  "lon": 5.7341676,
  "tags": {
    "amenity": "restaurant",
    "name": "Atypik Café"
  }
},
{
  "type": "node",
  "id": 1695977779,
  "lat": 45.0704375,
  "lon": 5.5507659,
  "tags": {
    "addr:housename": "Café des Sports",
    "addr:housenumber": "54",
    "addr:postcode": "38250",
    "addr:street": "Place de la Libération",
    "amenity": "bar",
    "name": "Café des Sports",
    "wifi": "yes"
  }
},
{
  "type": "node",
  "id": 1697821863,
  "lat": 45.1902995,
  "lon": 5.7216451,
  "tags": {
    "amenity": "fast_food",
    "cuisine": "sushi",
    "name": "Sushi Panda",
    "source": "survey"
  }
},
{
  "type": "node",
  "id": 1699458000,
  "lat": 45.1194342,
  "lon": 5.8112154,
  "tags": {
    "addr:postcode": "38410",
    "addr:street": "Avenue d'Uriage",
    "amenity": "restaurant",
    "name": "Le Grand Café",
    "source": "knowledge"
  }
},
{
  "type": "node",
  "id": 1705826924,
  "lat": 45.1480066,
  "lon": 5.7202581,
  "tags": {
    "amenity": "restaurant",
    "name": "La Villa Mauresque"
  }
},
{
  "type": "node",
  "id": 1705899376,
  "lat": 45.1185234,
  "lon": 5.8108909,
  "tags": {
    "amenity": "cafe",
    "name": "Café du Centre",
    "source": "knowledge"
  }
},
{
  "type": "node",
  "id": 1705945467,
  "lat": 44.8011533,
  "lon": 5.6492337,
  "tags": {
    "amenity": "cafe",
    "name": "Café de la Page"
  }
},
{
  "type": "node",
  "id": 1720792437,
  "lat": 45.1838974,
  "lon": 5.7686165,
  "tags": {
    "addr:housenumber": "7",
    "addr:postcode": "38400",
    "addr:street": "Rue Charles Darwin",
    "amenity": "restaurant",
    "cuisine": "asian",
    "name": "Le Fuji",
    "source": "Visual",
    "website": "http://le-fuji.fr/"
  }
},
{
  "type": "node",
  "id": 1722695696,
  "lat": 44.9329282,
  "lon": 6.2920341,
  "tags": {
    "amenity": "restaurant"
  }
},
{
  "type": "node",
  "id": 1722695799,
  "lat": 44.9328788,
  "lon": 6.2917793,
  "tags": {
    "amenity": "restaurant"
  }
},
{
  "type": "node",
  "id": 1742839546,
  "lat": 45.1821425,
  "lon": 5.7324244,
  "tags": {
    "amenity": "restaurant",
    "cuisine": "thai",
    "name": "Thaï Orchid",
    "source": "survey"
  }
},
{
  "type": "node",
  "id": 1746462789,
  "lat": 45.1909619,
  "lon": 5.7311426,
  "tags": {
    "amenity": "bar",
    "name": "Le Zinc",
    "source": "survey",
    "wheelchair": "no"
  }
},
{
  "type": "node",
  "id": 1746462791,
  "lat": 45.1911499,
  "lon": 5.7302809,
  "tags": {
    "amenity": "bar",
    "name": "L'Express Bar",
    "source": "survey"
  }
},
{
  "type": "node",
  "id": 1752495613,
  "lat": 45.2714126,
  "lon": 5.9646001,
  "tags": {
    "amenity": "restaurant",
    "name": "La Marmite des Adrets",
    "phone": "+33 9 73 15 21 50",
    "website": "http://www.lamarmitedesadrets.fr/"
  }
},
{
  "type": "node",
  "id": 1764741306,
  "lat": 45.1891474,
  "lon": 5.7210086,
  "tags": {
    "amenity": "restaurant",
    "name": "Le Touquet",
    "source": "survey"
  }
},
{
  "type": "node",
  "id": 1768480179,
  "lat": 45.2647544,
  "lon": 6.0155202,
  "tags": {
    "amenity": "cafe",
    "name": "Le Farinaud"
  }
},
{
  "type": "node",
  "id": 1770279740,
  "lat": 45.2382979,
  "lon": 5.8028490,
  "tags": {
    "amenity": "restaurant",
    "name": "Bar du Village"
  }
},
{
  "type": "node",
  "id": 1773376876,
  "lat": 45.1540634,
  "lon": 5.3192368,
  "tags": {
    "amenity": "restaurant",
    "cuisine": "pizza",
    "name": "Le Napoli"
  }
},
{
  "type": "node",
  "id": 1773376877,
  "lat": 45.1541051,
  "lon": 5.3192635,
  "tags": {
    "amenity": "restaurant",
    "cuisine": "french",
    "name": "Antalya"
  }
},
{
  "type": "node",
  "id": 1773377547,
  "lat": 45.1542735,
  "lon": 5.3193226,
  "tags": {
    "amenity": "bar",
    "name": "Le Boulevard"
  }
},
{
  "type": "node",
  "id": 1773579383,
  "lat": 45.1544918,
  "lon": 5.3224621,
  "tags": {
    "amenity": "bar",
    "name": "bar du Parvis"
  }
},
{
  "type": "node",
  "id": 1773596546,
  "lat": 45.1513431,
  "lon": 5.3217771,
  "tags": {
    "amenity": "restaurant",
    "cuisine": "pizza",
    "name": "La belle Histoire"
  }
},
{
  "type": "node",
  "id": 1773680298,
  "lat": 45.1520884,
  "lon": 5.3194598,
  "tags": {
    "amenity": "restaurant",
    "cuisine": "kebab",
    "name": "Egee Kebab"
  }
},
{
  "type": "node",
  "id": 1779485390,
  "lat": 45.1537416,
  "lon": 5.3208706,
  "tags": {
    "amenity": "bar",
    "name": "Bar le Commerce"
  }
},
{
  "type": "node",
  "id": 1779498590,
  "lat": 45.1539250,
  "lon": 5.3199854,
  "tags": {
    "amenity": "bar",
    "name": "Bar le Kiosque"
  }
},
{
  "type": "node",
  "id": 1783078492,
  "lat": 45.0824666,
  "lon": 5.3796476,
  "tags": {
    "amenity": "restaurant",
    "name": "Le Dragon Vert"
  }
},
{
  "type": "node",
  "id": 1787033211,
  "lat": 45.1770190,
  "lon": 5.5432180,
  "tags": {
    "amenity": "restaurant",
    "cuisine": "italian",
    "name": "Chez Françis"
  }
},
{
  "type": "node",
  "id": 1787033422,
  "lat": 45.1928303,
  "lon": 5.7711989,
  "tags": {
    "amenity": "restaurant",
    "name": "Martin's Café"
  }
},
{
  "type": "node",
  "id": 1787033423,
  "lat": 45.1951666,
  "lon": 5.7670790,
  "tags": {
    "amenity": "restaurant",
    "name": "Le Canberra"
  }
},
{
  "type": "node",
  "id": 1787168935,
  "lat": 45.1908187,
  "lon": 5.7203040,
  "tags": {
    "addr:housenumber": "7",
    "addr:postcode": "38000",
    "addr:street": "Cours Jean Jaurès",
    "amenity": "restaurant",
    "cuisine": "french",
    "name": "La Petite Idée",
    "website": "http://www.la-petite-idee.fr/"
  }
},
{
  "type": "node",
  "id": 1789882215,
  "lat": 45.1434946,
  "lon": 5.2824683,
  "tags": {
    "amenity": "cafe",
    "name": "Café du Centre"
  }
},
{
  "type": "node",
  "id": 1789883865,
  "lat": 45.1439108,
  "lon": 5.2822106,
  "tags": {
    "amenity": "bar"
  }
},
{
  "type": "node",
  "id": 1790237014,
  "lat": 45.3934905,
  "lon": 6.0755763,
  "tags": {
    "amenity": "bar",
    "name": "European bar"
  }
},
{
  "type": "node",
  "id": 1790244901,
  "lat": 45.3933916,
  "lon": 6.0742687,
  "tags": {
    "amenity": "restaurant",
    "cuisine": "french",
    "name": "Crêperie La Flambé"
  }
},
{
  "type": "node",
  "id": 1790249653,
  "lat": 45.3936769,
  "lon": 6.0742702,
  "tags": {
    "amenity": "bar"
  }
},
{
  "type": "node",
  "id": 1790249654,
  "lat": 45.3936188,
  "lon": 6.0739879,
  "tags": {
    "amenity": "bar"
  }
},
{
  "type": "node",
  "id": 1791765239,
  "lat": 45.3939888,
  "lon": 6.0735607,
  "tags": {
    "amenity": "restaurant"
  }
},
{
  "type": "node",
  "id": 1791765241,
  "lat": 45.3941490,
  "lon": 6.0742099,
  "tags": {
    "amenity": "fast_food"
  }
},
{
  "type": "node",
  "id": 1791765244,
  "lat": 45.3938662,
  "lon": 6.0743065,
  "tags": {
    "amenity": "restaurant"
  }
},
{
  "type": "node",
  "id": 1792938229,
  "lat": 45.3904269,
  "lon": 6.0711737,
  "tags": {
    "amenity": "restaurant"
  }
},
{
  "type": "node",
  "id": 1794094864,
  "lat": 45.1826146,
  "lon": 5.7166866,
  "tags": {
    "addr:housenumber": "1",
    "addr:postcode": "38000",
    "addr:street": "Rue Irvoy",
    "amenity": "restaurant",
    "cuisine": "regional",
    "name": "Le Célia",
    "website": "www.creperie-lecelia-grenoble.fr"
  }
},
{
  "type": "node",
  "id": 1797570735,
  "lat": 45.1864624,
  "lon": 5.7223632,
  "tags": {
    "addr:housenumber": "7",
    "addr:postcode": "38000",
    "addr:street": "rue Génissieu",
    "amenity": "restaurant",
    "cuisine": "french",
    "name": "L'Envie des Mets",
    "source": "survey"
  }
},
{
  "type": "node",
  "id": 1797577119,
  "lat": 45.1856897,
  "lon": 5.7224188,
  "tags": {
    "addr:housenumber": "4",
    "addr:street": "Place Championnet",
    "amenity": "restaurant",
    "cuisine": "russian",
    "name": "Kalinka",
    "old_name": "Le Bon Moment"
  }
},
{
  "type": "node",
  "id": 1797581133,
  "lat": 45.1889785,
  "lon": 5.7142040,
  "tags": {
    "amenity": "restaurant",
    "cuisine": "regional",
    "name": "Bistrot l'Oxalis"
  }
},
{
  "type": "node",
  "id": 1797642298,
  "lat": 45.1918739,
  "lon": 5.7248380,
  "tags": {
    "addr:housename": "2",
    "addr:postcode": "38000",
    "addr:street": "Avenue Félix Viallet",
    "amenity": "restaurant",
    "cuisine": "french",
    "name": "Le Dix Vins",
    "source": "survey"
  }
},
{
  "type": "node",
  "id": 1807143862,
  "lat": 45.1906624,
  "lon": 5.7689454,
  "tags": {
    "addr:city": "Saint Martin d'Hères",
    "addr:country": "FR",
    "addr:housename": "Le Diderot",
    "addr:housenumber": "40",
    "addr:postcode": "38400",
    "addr:street": "Rue des Universités",
    "amenity": "restaurant",
    "name": "Le Diderot"
  }
},
{
  "type": "node",
  "id": 1807143865,
  "lat": 45.1909856,
  "lon": 5.7675907,
  "tags": {
    "amenity": "bar",
    "name": "EVE",
    "wheelchair": "yes"
  }
},
{
  "type": "node",
  "id": 1807143875,
  "lat": 45.1904923,
  "lon": 5.7689667,
  "tags": {
    "addr:city": "Saint Martin d'Hères",
    "addr:country": "FR",
    "addr:postcode": "38400",
    "addr:street": "Rue des Universités",
    "amenity": "restaurant",
    "name": "L'entr'acte"
  }
},
{
  "type": "node",
  "id": 1807154916,
  "lat": 45.1922762,
  "lon": 5.7707120,
  "tags": {
    "amenity": "fast_food",
    "name": "La Camionette"
  }
},
{
  "type": "node",
  "id": 1807154932,
  "lat": 45.1921103,
  "lon": 5.7711661,
  "tags": {
    "amenity": "fast_food",
    "name": "Le Camion"
  }
},
{
  "type": "node",
  "id": 1809218210,
  "lat": 45.1925090,
  "lon": 5.7234620,
  "tags": {
    "amenity": "restaurant",
    "cuisine": "american",
    "name": "Ontario Restaurant",
    "note": "Salmon & Steak Country",
    "source": "survey"
  }
},
{
  "type": "node",
  "id": 1811696316,
  "lat": 45.1938188,
  "lon": 5.7245049,
  "tags": {
    "amenity": "restaurant",
    "cuisine": "pizza",
    "name": "Festival des Pizzas"
  }
},
{
  "type": "node",
  "id": 1811696317,
  "lat": 45.1939895,
  "lon": 5.7253482,
  "tags": {
    "amenity": "restaurant",
    "cuisine": "pizza",
    "name": "Il Vaporetto La Crêpe Cuisinée"
  }
},
{
  "type": "node",
  "id": 1811696318,
  "lat": 45.1954464,
  "lon": 5.7293566,
  "tags": {
    "amenity": "restaurant",
    "cuisine": "pizza",
    "name": "Il Vesuvio"
  }
},
{
  "type": "node",
  "id": 1811696320,
  "lat": 45.1951296,
  "lon": 5.7289587,
  "tags": {
    "amenity": "restaurant",
    "cuisine": "bolivian",
    "name": "Kori Tika Pena"
  }
},
{
  "type": "node",
  "id": 1811696335,
  "lat": 45.1958609,
  "lon": 5.7299001,
  "tags": {
    "amenity": "restaurant",
    "cuisine": "armenian",
    "name": "Kotchari"
  }
},
{
  "type": "node",
  "id": 1811696339,
  "lat": 45.1947430,
  "lon": 5.7282414,
  "tags": {
    "amenity": "restaurant",
    "cuisine": "italian",
    "name": "L'Arôme Antique"
  }
},
{
  "type": "node",
  "id": 1811696341,
  "lat": 45.1936200,
  "lon": 5.7236718,
  "tags": {
    "amenity": "restaurant",
    "cuisine": "italian",
    "name": "L'Origano"
  }
},
{
  "type": "node",
  "id": 1811696342,
  "lat": 45.1936018,
  "lon": 5.7220096,
  "tags": {
    "amenity": "restaurant",
    "cuisine": "italian",
    "name": "La Bruschetta"
  }
},
{
  "type": "node",
  "id": 1811696343,
  "lat": 45.1945425,
  "lon": 5.7278135,
  "tags": {
    "amenity": "restaurant",
    "cuisine": "african",
    "name": "La Casanaice"
  }
},
{
  "type": "node",
  "id": 1811696344,
  "lat": 45.1948461,
  "lon": 5.7287626,
  "tags": {
    "amenity": "bar",
    "name": "La Cymaise"
  }
},
{
  "type": "node",
  "id": 1811696346,
  "lat": 45.1938575,
  "lon": 5.7246405,
  "tags": {
    "amenity": "restaurant",
    "cuisine": "pizza",
    "name": "La Dolce Vita"
  }
},
{
  "type": "node",
  "id": 1811696349,
  "lat": 45.1942413,
  "lon": 5.7265512,
  "tags": {
    "amenity": "restaurant",
    "cuisine": "pizza",
    "name": "La Felicita"
  }
},
{
  "type": "node",
  "id": 1811696363,
  "lat": 45.1939100,
  "lon": 5.7248639,
  "tags": {
    "amenity": "restaurant",
    "cuisine": "pizza",
    "name": "La Florentine"
  }
},
{
  "type": "node",
  "id": 1811696366,
  "lat": 45.1942607,
  "lon": 5.7266225,
  "tags": {
    "amenity": "restaurant",
    "cuisine": "pizza",
    "name": "La Gabelle 2"
  }
},
{
  "type": "node",
  "id": 1811696369,
  "lat": 45.1939613,
  "lon": 5.7251836,
  "tags": {
    "amenity": "restaurant",
    "cuisine": "pizza",
    "name": "La Storia"
  }
},
{
  "type": "node",
  "id": 1811696370,
  "lat": 45.1941314,
  "lon": 5.7260222,
  "tags": {
    "amenity": "restaurant",
    "cuisine": "italian",
    "name": "La Toscana"
  }
},
{
  "type": "node",
  "id": 1811696371,
  "lat": 45.1936454,
  "lon": 5.7238897,
  "tags": {
    "amenity": "restaurant",
    "cuisine": "pizza",
    "name": "La Traviata"
  }
},
{
  "type": "node",
  "id": 1811696372,
  "lat": 45.1942833,
  "lon": 5.7266852,
  "tags": {
    "amenity": "restaurant",
    "cuisine": "pizza",
    "name": "Le Palais des 4 Saisons"
  }
},
{
  "type": "node",
  "id": 1811696374,
  "lat": 45.1939486,
  "lon": 5.7251029,
  "tags": {
    "amenity": "restaurant",
    "cuisine": "oriental",
    "name": "Le Palmier"
  }
},
{
  "type": "node",
  "id": 1811696377,
  "lat": 45.1947021,
  "lon": 5.7281662,
  "tags": {
    "amenity": "restaurant",
    "cuisine": "pizza",
    "name": "Le Petit Rocher"
  }
},
{
  "type": "node",
  "id": 1811696392,
  "lat": 45.1954603,
  "lon": 5.7291813,
  "tags": {
    "amenity": "bar",
    "name": "Les 2 Escaliers"
  }
},
{
  "type": "node",
  "id": 1811696395,
  "lat": 45.1947639,
  "lon": 5.7282728,
  "tags": {
    "amenity": "pub",
    "name": "Lochness Pub"
  }
},
{
  "type": "node",
  "id": 1811696396,
  "lat": 45.1957090,
  "lon": 5.7301863,
  "tags": {
    "amenity": "restaurant",
    "cuisine": "liban",
    "name": "Mont Liban"
  }
},
{
  "type": "node",
  "id": 1811696397,
  "lat": 45.1939221,
  "lon": 5.7249657,
  "tags": {
    "amenity": "restaurant",
    "cuisine": "pizza",
    "name": "Note E Di"
  }
},
{
  "type": "node",
  "id": 1811696399,
  "lat": 45.1944911,
  "lon": 5.7276607,
  "tags": {
    "amenity": "restaurant",
    "cuisine": "pizza",
    "name": "Paradisio Pizzeria"
  }
},
{
  "type": "node",
  "id": 1811696401,
  "lat": 45.1949438,
  "lon": 5.7289861,
  "tags": {
    "amenity": "restaurant",
    "cuisine": "pizza",
    "name": "Pasta Cosi"
  }
},
{
  "type": "node",
  "id": 1811696404,
  "lat": 45.1940652,
  "lon": 5.7256891,
  "tags": {
    "amenity": "restaurant",
    "cuisine": "pizza",
    "name": "Pizzeria Casanova"
  }
},
{
  "type": "node",
  "id": 1811696408,
  "lat": 45.1941033,
  "lon": 5.7258607,
  "tags": {
    "amenity": "restaurant",
    "cuisine": "pizza",
    "name": "Pizzeria Di Roma"
  }
},
{
  "type": "node",
  "id": 1811696423,
  "lat": 45.1943562,
  "lon": 5.7270731,
  "tags": {
    "amenity": "restaurant",
    "cuisine": "pizza",
    "name": "Pizzeria La Royale"
  }
},
{
  "type": "node",
  "id": 1811696425,
  "lat": 45.1943783,
  "lon": 5.7272114,
  "tags": {
    "amenity": "restaurant",
    "cuisine": "pizza",
    "name": "Pizzeria Le Rotolo"
  }
},
{
  "type": "node",
  "id": 1811696426,
  "lat": 45.1944514,
  "lon": 5.7275894,
  "tags": {
    "amenity": "restaurant",
    "cuisine": "pizza",
    "name": "Pizzeria Saint-Laurent"
  }
},
{
  "type": "node",
  "id": 1811696427,
  "lat": 45.1942982,
  "lon": 5.7267620,
  "tags": {
    "amenity": "restaurant",
    "cuisine": "pizza",
    "name": "Pizzeria de l'Isère"
  }
},
{
  "type": "node",
  "id": 1811696428,
  "lat": 45.1941149,
  "lon": 5.7259462,
  "tags": {
    "amenity": "restaurant",
    "cuisine": "pizza",
    "name": "Pizzeria des Quais"
  }
},
{
  "type": "node",
  "id": 1811696429,
  "lat": 45.1942275,
  "lon": 5.7264830,
  "tags": {
    "amenity": "restaurant",
    "cuisine": "pizza",
    "name": "Pizzeria du Vieux Quartier"
  }
},
{
  "type": "node",
  "id": 1811696432,
  "lat": 45.1967514,
  "lon": 5.7311379,
  "tags": {
    "amenity": "bar",
    "name": "SOS Apéro"
  }
},